Latitude,Longitude,Location,Country
31.9375,120.2375,W6PP+XX Jingjiang,W6PP+XX Jingjiang
38.9875,117.7208333,China,China
53.1125,140.7041667,4P73+2M Nikolayevsk-on-Amur,4P73+2M Nikolayevsk-on-Amur
23.22083333,90.62916667,6JCH+8M Rajrajeshwar,6JCH+8M Rajrajeshwar
34.4625,119.7791667,FQ7H+2M Yanweigangzhen,FQ7H+2M Yanweigangzhen
22.39583333,113.2541667,97W3+8M Xinhui District,97W3+8M Xinhui District
37.77083333,119.1708333,8P9XQ5CC+88,8P9XQ5CC+88
23.9375,68.59583333,7JMCWHPW+X8,7JMCWHPW+X8
9.6125,106.2541667,J763+XM Cù Lao Dung District,J763+XM Cù Lao Dung District
31.35416667,121.5125,9G36+MX Baoshan,9G36+MX Baoshan
31.27916667,32.24583333,76JW+56P,76JW+56P
16.3625,95.0375,926Q+X2 Kanazogyaung,926Q+X2 Kanazogyaung
20.3125,106.5291667,8G6H+XM Giao Thủy District,8G6H+XM Giao Thủy District
40.97083333,121.8291667,8QG3XRCH+8M,8QG3XRCH+8M
-0.670833333,-51.07916667,8WHC+M8 Ipixuna - Curumu,8WHC+M8 Ipixuna - Curumu
6.420833333,3.404166667,19 Adeola Odeku,19 Adeola Odeku
40.70416667,122.1625,P537+M2 Xishi District,P537+M2 Xishi District
29.99583333,48.4625,XFW7+82 Nahr-e Azraq,XFW7+82 Nahr-e Azraq
4.820833333,8.254166667,R7C3+8M Oron,R7C3+8M Oron
-33.9375,-58.52083333,48R33F6H+XM,48R33F6H+XM
34.1125,120.3291667,486H+XM Liuduo Town,486H+XM Liuduo Town
11.07083333,-74.84583333,35C3+8M Barranquilla,35C3+8M Barranquilla
-0.2625,42.62916667,PJPH+XM Somalia,PJPH+XM Somalia
38.09583333,118.0375,32WQ+82 Dongfenggang Town,32WQ+82 Dongfenggang Town
6.970833333,79.87083333,291 Modera St,291 Modera St
10.50416667,106.7541667,GQ33+MM Cần Giờ,GQ33+MM Cần Giờ
37.27916667,118.9625,7XH6+MX Yangkou Town,7XH6+MX Yangkou Town
23.04583333,113.5208333,12 Xin Gang Lu,12 Xin Gang Lu
20.70416667,106.6458333,PJ3W+M8 Tiên Lãng,PJ3W+M8 Tiên Lãng
14.57916667,120.9791667,533E Unted Nation Avenue,533E Unted Nation Avenue
-7.0625,112.6375,WJPP+XX Manyarejo,WJPP+XX Manyarejo
13.6125,100.5625,JH66+XX Bang Prong,JH66+XX Bang Prong
20.02916667,106.1125,24H7+M2 Nghĩa Hưng District,24H7+M2 Nghĩa Hưng District
16.55416667,97.6625,HM37+M2 Ga doe,HM37+M2 Ga doe
4.545833333,7.529166667,GGWH+8M Ikot Abasi,GGWH+8M Ikot Abasi
13.4875,100.9875,FXPQ+X2 Tha Kham,FXPQ+X2 Tha Kham
31.15416667,29.84583333,5R3W+J5G,5R3W+J5G
38.2375,117.9291667,8PCV6WQH+2M,8PCV6WQH+2M
31.5125,31.82916667,GR7H+2J5,GR7H+2J5
30.3875,120.6208333,9JQC+28 Dingqiaozhen,9JQC+28 Dingqiaozhen
23.45416667,116.8541667,FV33+MM Chenghai District,FV33+MM Chenghai District
6.5875,79.9625,32 Sir Cyril De Zoysa Mawatha,32 Sir Cyril De Zoysa Mawatha
31.44583333,30.3875,C9WP+2M6,C9WP+2M6
10.47916667,106.7208333,FPHC+M8 Gò Công Đông District,FPHC+M8 Gò Công Đông District
31.5875,31.17916667,H5QH+2M Burullus,H5QH+2M Burullus
47.07916667,39.2625,37H6+MX Kagal'nik,37H6+MX Kagal'nik
51.9625,4.154166667,Maeslantkeringweg 7,Maeslantkeringweg 7
-7.5625,112.8708333,CVPC+X8 Tanjungsari,CVPC+X8 Tanjungsari
21.3875,110.7458333,9PQW+28 Wuchuan,9PQW+28 Wuchuan
24.80416667,67.07916667,M110/3 Saadi Lane -6,M110/3 Saadi Lane -6
15.72916667,-88.2375,PQH7+M2 Chinook,PQH7+M2 Chinook
23.09583333,113.4041667,3CW3+8M Haizhu District,3CW3+8M Haizhu District
38.69583333,125.5625,MHW6+8X Chido-dong,MHW6+8X Chido-dong
25.1625,121.4375,5C6P+XX Taiwan,5C6P+XX Taiwan
4.529166667,6.670833333,GMHC+M8 Sego Creek,GMHC+M8 Sego Creek
13.52916667,100.2625,โรงเรียนอันนาลัย Tambon Tha Chalom,โรงเรียนอันนาลัย Tambon Tha Chalom
45.24583333,29.69583333,8GQF6MWW+88,8GQF6MWW+88
37.09583333,119.4708333,3FWC+88 Xiaying Town,3FWC+88 Xiaying Town
36.1875,120.1291667,54PH+XM Chengyang District,54PH+XM Chengyang District
39.3125,49.37083333,896C+X8 İkinci Mayak,896C+X8 İkinci Mayak
28.02916667,120.7041667,2PH3+MM Yongjia County,2PH3+MM Yongjia County
39.1125,117.7291667,4P7H+2M Beitang Residential District,4P7H+2M Beitang Residential District
5.9125,5.270833333,W76C+X8 Gwato Creek,W76C+X8 Gwato Creek
36.04583333,35.9625,2XW7+82 Samandağ/Hatay,2XW7+82 Samandağ/Hatay
24.42916667,117.8458333,CRHW+M8 Haicheng,CRHW+M8 Haicheng
16.7125,82.24583333,P67W+28 Yanam,P67W+28 Yanam
14.04583333,-16.57916667,2CWC+88 Diamniadio,2CWC+88 Diamniadio
7.595833333,79.7875,HQWP+3J,HQWP+3J
14.77083333,120.6458333,QJCW+88 Macabebe,QJCW+88 Macabebe
18.5625,-92.67083333,H86H+XM Frontera,H86H+XM Frontera
23.4375,116.5125,CGP6+XX Chaoyang,CGP6+XX Chaoyang
37.12916667,119.1875,45HP+MX Yangzi Residential District,45HP+MX Yangzi Residential District
19.77083333,105.8541667,QVC3+8M Quảng Xương District,QVC3+8M Quảng Xương District
22.74583333,89.52916667,PGWH+8M Batiaghata,PGWH+8M Batiaghata
5.9125,5.295833333,W76W+X8 Palmas Point,W76W+X8 Palmas Point
22.30416667,88.10416667,8434+J55,8434+J55
5.254166667,-4.004166667,7X3W+M85,7X3W+M85
26.0625,119.5125,3G76+4J5,3G76+4J5
8.4625,81.24583333,F67W+28 Navaladitottam,F67W+28 Navaladitottam
18.72083333,105.7541667,PQC3+8M Nghi Xuân,PQC3+8M Nghi Xuân
3.004166667,101.3791667,PT 29718,PT 29718
-29.22916667,31.4875,QFCQ+82 Macambini,QFCQ+82 Macambini
24.07916667,67.65416667,3MH3+MM Kharo Chan,3MH3+MM Kharo Chan
20.62083333,106.6458333,JJCW+88 Thụy Trường,JJCW+88 Thụy Trường
4.545833333,7.9875,GXWQ+39P,GXWQ+39P
31.40416667,30.75416667,CQ33+MM Sidi Salem,CQ33+MM Sidi Salem
7.270833333,79.84583333,7RCW+C22,7RCW+C22
9.929166667,106.4625,WFH6+MX Châu Thành District,WFH6+MX Châu Thành District
9.095833333,105.5041667,3GW3+8M Dong Hai,3GW3+8M Dong Hai
30.14583333,120.6625,4MW7+82 Ma'an Neighborhood,4MW7+82 Ma'an Neighborhood
6.3625,2.4375,LOT 139 Varango,LOT 139 Varango
17.29583333,96.92083333,7WWC+88 Alanbya,7WWC+88 Alanbya
8.579166667,-60.97916667,H2HC+M8 Curiapo,H2HC+M8 Curiapo
24.87083333,118.6208333,VJCC+88 Jinjiang,VJCC+88 Jinjiang
7.195833333,79.82083333,5RWC+596,5RWC+596
28.69583333,121.4125,MCW7+82 Jiaojiang District,MCW7+82 Jiaojiang District
-2.404166667,105.0291667,H2WH+8M Upang Marga,H2WH+8M Upang Marga
-18.80416667,36.25416667,57W3+8M Amado,57W3+8M Amado
21.6375,-105.4458333,JHQ3+2M Boca del Asadero,JHQ3+2M Boca del Asadero
38.2625,117.8458333,7R6W+X8 Haixing County,7R6W+X8 Haixing County
34.27083333,-6.654166667,78CW+88 Kenitra,78CW+88 Kenitra
53.54583333,9.8625,Teufelsbrück,Teufelsbrück
5.145833333,5.4625,4FW7+82 Akassa Creek,4FW7+82 Akassa Creek
39.1125,117.7208333,4P7C+28 Beitang Residential District,4P7C+28 Beitang Residential District
42.3125,130.6625,8M67+X2 Kulpho-ri,8M67+X2 Kulpho-ri
46.90416667,31.99583333,WX3W+M8 Radisnyi Sad,WX3W+M8 Radisnyi Sad
36.74583333,3.129166667,P4WH+8M Hussein Dey,P4WH+8M Hussein Dey
7.254166667,124.2041667,7633+MM Cotabato City,7633+MM Cotabato City
36.0375,0.1375,24PP+XX Benabdelmalek Ramdane,24PP+XX Benabdelmalek Ramdane
-7.679166667,109.1125,84C7+82 Slarang,84C7+82 Slarang
-31.62083333,29.54583333,Shop 1,Shop 1
29.95416667,121.7208333,33 Gulou E Rd,33 Gulou E Rd
36.87916667,6.104166667,V4H3+MM Kheiri Oued Adjoul,V4H3+MM Kheiri Oued Adjoul
53.55416667,14.60416667,HJ33+MM Police,HJ33+MM Police
-29.8125,31.0375,31 Stiebel Pl,31 Stiebel Pl
16.8375,96.10416667,R4P3+Q5C,R4P3+Q5C
18.32916667,121.6375,8JHP+MX Aparri,8JHP+MX Aparri
4.029166667,100.8208333,2RHC+M8 Sitiawan,2RHC+M8 Sitiawan
34.7875,119.2208333,Q6PC+X8 Lianyun District,Q6PC+X8 Lianyun District
22.44583333,113.0041667,C2W3+8M Xinhui District,C2W3+8M Xinhui District
6.395833333,3.029166667,92WH+8M Ojogun,92WH+8M Ojogun
37.05416667,119.5708333,3H3C+M8 Xiaying Town,3H3C+M8 Xiaying Town
5.945833333,80.55416667,7 Jayasumanaramaya Rd,7 Jayasumanaramaya Rd
3.520833333,103.4458333,GCCW+88 Kampung Beruas,GCCW+88 Kampung Beruas
22.52083333,120.4208333,GCCC+88 Taiwan,GCCC+88 Taiwan
-6.079166667,107.0125,W2C6+8X Segarajaya,W2C6+8X Segarajaya
-7.670833333,108.7958333,8QHV+JX9,8QHV+JX9
40.92916667,121.2458333,W6HW+M8 Taihe District,W6HW+M8 Taihe District
15.82083333,42.77916667,RQCH+8M Bani Asad,RQCH+8M Bani Asad
6.070833333,80.17083333,359C+VGR,359C+VGR
10.77916667,-83.5875,QCH7+M2 Limón,QCH7+M2 Limón
16.0375,120.2041667,26P3+XM Lingayen,26P3+XM Lingayen
39.2125,118.0708333,637C+28 Fengnan District,637C+28 Fengnan District
27.7375,120.6541667,PMP3+XM Dongshan Residential District,PMP3+XM Dongshan Residential District
36.72083333,5.079166667,P3CH+8M Béjaïa,P3CH+8M Béjaïa
40.84583333,121.5791667,8QG3RHWH+8M,8QG3RHWH+8M
28.14583333,51.27083333,47WC+88 Kabgan,47WC+88 Kabgan
13.92916667,-90.70416667,W7HW+RWG,W7HW+RWG
39.42083333,119.2625,C7C6+8X Jianggezhuangzhen,C7C6+8X Jianggezhuangzhen
23.19583333,116.6041667,5JW3+8M Chaonan District,5JW3+8M Chaonan District
24.87083333,66.97083333,VXCC+88 Keamari,VXCC+88 Keamari
24.14583333,120.5291667,4GWH+8M Taiwan,4GWH+8M Taiwan
12.9375,45.09583333,W3PV+WX5، المدينه الخضراء، Yemen,W3PV+WX5، المدينه الخضراء، Yemen
21.7875,111.9791667,QXPH+XM Jiangcheng District,QXPH+XM Jiangcheng District
40.02916667,124.3708333,29HC+M8 Zhenxing District,29HC+M8 Zhenxing District
17.95416667,-102.1375,XV37+M2 Lázaro Cárdenas,XV37+M2 Lázaro Cárdenas
-2.395833333,-79.8375,J537+M2 Punta de Piedras,J537+M2 Punta de Piedras
22.4375,87.8875,CVPP+XX Naupala,CVPP+XX Naupala
0.9375,-79.64583333,W9P3+XM Esmeraldas,W9P3+XM Esmeraldas
14.1375,43.0875,43QQ+22 Al Fazah,43QQ+22 Al Fazah
46.07916667,30.47083333,3FHC+M8 Zatoka,3FHC+M8 Zatoka
-3.170833333,40.14583333,R4HW+M8 Malindi,R4HW+M8 Malindi
38.77083333,117.5791667,QHCH+8M Haibin Residential District,QHCH+8M Haibin Residential District
-6.104166667,106.7791667,VQWH+67,VQWH+67
20.0125,110.3875,297P+2X Meilan District,297P+2X Meilan District
24.9125,66.72083333,WP6C+X8 Keamari,WP6C+X8 Keamari
-6.245833333,108.2208333,Q63C+M8 Lamarantarung,Q63C+M8 Lamarantarung
6.429166667,79.99583333,CXHV+MXP,CXHV+MXP
-32.67916667,28.37916667,37 R349,37 R349
13.37083333,99.99583333,9XCW+88 Bang Cha Kreng,9XCW+88 Bang Cha Kreng
22.3875,72.37916667,99QH+2M Vadgam,99QH+2M Vadgam
-7.979166667,110.2125,26F9+2W Jembatan Pandansimo,26F9+2W Jembatan Pandansimo
-5.945833333,107.0125,3236+MX Pantai Bahagia,3236+MX Pantai Bahagia
5.8375,5.1375,R4QP+2X Tebu,R4QP+2X Tebu
-1.095833333,104.1958333,W53W+M8 Sungai Jeruk,W53W+M8 Sungai Jeruk
26.77083333,119.7125,QPC6+8X Xiabaishizhen,QPC6+8X Xiabaishizhen
2.804166667,101.4041667,RC33+MM Carey Island,RC33+MM Carey Island
22.27083333,91.8125,7RC6+3MV,7RC6+3MV
5.195833333,-3.729166667,57WC+7GR,57WC+7GR
36.60416667,120.8125,JR36+MX Yangjun,JR36+MX Yangjun
15.90416667,-87.7375,W737+M2 Saraguama,W737+M2 Saraguama
37.55416667,121.2875,1 Jin Yu He Pan Xiao Qu,1 Jin Yu He Pan Xiao Qu
31.2625,32.32083333,787C+28 Port Said Al Daerah Al Gomrokia,787C+28 Port Said Al Daerah Al Gomrokia
-8.0125,110.2875,X7QP+4G9,X7QP+4G9
-34.62916667,-58.34583333,9MC3+8M Buenos Aires,9MC3+8M Buenos Aires
31.42916667,121.4625,CFH6+MX Baoshan,CFH6+MX Baoshan
37.42083333,53.94583333,CWCW+88 Esenguly,CWCW+88 Esenguly
13.09583333,-87.3375,3MW7+82 Albania,3MW7+82 Albania
22.57916667,89.39583333,H9HW+M8 Bayar Jhapa,H9HW+M8 Bayar Jhapa
25.9625,-97.15416667,XR7W+28 Boca Chica,XR7W+28 Boca Chica
32.02916667,-9.345833333,2MH3+MM Souira Kedima,2MH3+MM Souira Kedima
29.64583333,32.35416667,J9W3+8M Erban Atekah and Al Manayef,J9W3+8M Erban Atekah and Al Manayef
-5.570833333,105.8208333,CRHC+M8 Labuhan Ratu,CRHC+M8 Labuhan Ratu
-26.34583333,32.67916667,MM3H+MM Bela Vista,MM3H+MM Bela Vista
6.754166667,79.8875,QV3Q+M64,QV3Q+M64
20.77083333,86.94583333,QWCW+88 RajendraNagar,QWCW+88 RajendraNagar
26.99583333,55.7875,XQWP+8X Bandar e Pol,XQWP+8X Bandar e Pol
20.32916667,86.65416667,8MH3+MM Musadia,8MH3+MM Musadia
-6.095833333,106.9375,WW3P+CV,WW3P+CV
16.77083333,96.19583333,Q5CW+88 Yangon,Q5CW+88 Yangon
-28.40416667,32.42083333,HCWC+88 Duku,HCWC+88 Duku
9.1875,99.37083333,59PC+X8 Surat Thani,59PC+X8 Surat Thani
46.52916667,32.37916667,G9HH+MM Kizomys,G9HH+MM Kizomys
13.0625,45.3875,396P+XX Kawd al `abadil,396P+XX Kawd al `abadil
-7.8125,145.0125,52P6+XX Akoma,52P6+XX Akoma
32.02083333,120.8041667,China,China
-20.92916667,35.0625,33C6+8X Nova Mambone,33C6+8X Nova Mambone
4.3875,6.070833333,93QC+28 Diebu Creek,93QC+28 Diebu Creek
-6.770833333,110.5708333,6HHC+M8 Berahan Kulon,6HHC+M8 Berahan Kulon
21.6125,109.0708333,J36C+X8 Dangjiangzhen,J36C+X8 Dangjiangzhen
32.0375,120.7375,2PPQ+X2 Tianshenggangzhen,2PPQ+X2 Tianshenggangzhen
19.60416667,105.7958333,JQ3W+M8 Quảng Xương District,JQ3W+M8 Quảng Xương District
18.60416667,37.85416667,7GCVJV33+MM,7GCVJV33+MM
15.8625,108.3541667,V963+XM Hội An,V963+XM Hội An
-33.8625,18.4875,4FQQ+22 Milnerton,4FQQ+22 Milnerton
16.7625,94.7125,QP76+2X Pathein,QP76+2X Pathein
-4.679166667,105.8625,8VC7+JF,8VC7+JF
31.44583333,31.55416667,CHW3+8M Gamasa City,CHW3+8M Gamasa City
53.3375,8.495833333,8FQW+28 Brake,8FQW+28 Brake
36.8625,7.779166667,VQ7H+4PM,VQ7H+4PM
40.39583333,28.50416667,9GW3+8M Karacabey/Bursa,9GW3+8M Karacabey/Bursa
15.7625,80.8375,QR7P+2X Lankevanidibba,QR7P+2X Lankevanidibba
25.40416667,119.1208333,C43C+M8 Licheng District,C43C+M8 Licheng District
39.1875,118.1208333,54PC+X8 Caofeidian District,54PC+X8 Caofeidian District
39.89583333,123.6458333,VJWW+88 Huangtukanzhen,VJWW+88 Huangtukanzhen
18.47083333,-69.87916667,F4CC+88 Santo Domingo,F4CC+88 Santo Domingo
36.8375,3.670833333,RMPC+V4 واد,RMPC+V4 واد
2.054166667,102.5541667,3H33+MM Muar,3H33+MM Muar
-3.804166667,144.4875,5FWP+8X Kopa,5FWP+8X Kopa
9.0125,125.5208333,2G7C+28 Magallanes,2G7C+28 Magallanes
-6.120833333,106.8291667,Jl. Taman Marina No.RT.9,Jl. Taman Marina No.RT.9
27.5875,120.5791667,HHPH+WG8,HHPH+WG8
33.8125,120.4791667,RF6H+XM Huangshagangzhen,RF6H+XM Huangshagangzhen
22.64583333,90.02916667,J2WH+8M Sayna Rogunathpur,J2WH+8M Sayna Rogunathpur
37.35416667,118.9208333,9W3C+M8 Yangkouzhen,9W3C+M8 Yangkouzhen
4.370833333,-7.5375,9FC7+82 Kablekeh,9FC7+82 Kablekeh
15.8125,-88.75416667,R66W+X8 Livingston,R66W+X8 Livingston
-34.44583333,-58.52083333,HF3H+MM Victoria,HF3H+MM Victoria
22.77916667,91.35416667,Q9H3+RQM ছুচাপুর,Q9H3+RQM ছুচাপুর
23.82916667,120.2791667,R7HH+MM Taiwan,R7HH+MM Taiwan
22.75416667,90.4125,QC37+M2 Charmonai,QC37+M2 Charmonai
11.75416667,79.7875,QQ3Q+M2 Cuddalore,QQ3Q+M2 Cuddalore
13.70416667,123.1291667,P43H+MM Bombon,P43H+MM Bombon
14.7125,120.8958333,PV6W+X8 Bulakan,PV6W+X8 Bulakan
23.0875,113.4041667,China,China
25.17916667,61.67083333,5MHC+M8 Jiwani,5MHC+M8 Jiwani
6.179166667,102.2458333,56HW+M8 Kota Bharu,56HW+M8 Kota Bharu
12.4625,80.15416667,F573+2M Sadurangapattinam,F573+2M Sadurangapattinam
19.2375,-72.7625,66PP+XX Grande-Saline,66PP+XX Grande-Saline
32.07916667,120.4708333,3FHC+M8 Jingjiang,3FHC+M8 Jingjiang
36.2375,120.3125,68P6+XX Chengyang District,68P6+XX Chengyang District
14.1875,-91.77916667,56PC+X8 La Verde,56PC+X8 La Verde
-25.77083333,32.7375,6PHP+3VP,6PHP+3VP
13.07083333,109.3125,38C6+8X Tuy Hòa,38C6+8X Tuy Hòa
21.42916667,109.9208333,CWHC+M8 Beitan Town,CWHC+M8 Beitan Town
47.0875,37.57083333,Konservna St,Konservna St
12.5625,-16.37083333,HJ6H+XM Brin,HJ6H+XM Brin
9.995833333,106.5541667,XHW3+8M Thạnh Phú District,XHW3+8M Thạnh Phú District
9.8875,105.1041667,V4Q3+2M Châu Thành District,V4Q3+2M Châu Thành District
34.3875,119.7958333,9QPW+X8 Chenjiagang,9QPW+X8 Chenjiagang
20.8625,106.7541667,VQ63+XM Hải An,VQ63+XM Hải An
-0.354166667,103.4458333,JCWW+88 Sapat,JCWW+88 Sapat
13.49583333,100.3125,F8W6+8X Khok Kham,F8W6+8X Khok Kham
30.14583333,120.6541667,4MW3+8M Ma'an Neighborhood,4MW3+8M Ma'an Neighborhood
36.9125,3.854166667,WV63+XM Sidi Daoud,WV63+XM Sidi Daoud
22.25416667,-97.79583333,7633+MM Bella Vista,7633+MM Bella Vista
34.52083333,119.6458333,GJCW+88 Lianyun District,GJCW+88 Lianyun District
-6.795833333,109.0041667,6233+MM Sawojajar,6233+MM Sawojajar
10.6125,-61.4875,JG67+X2 San Juan,JG67+X2 San Juan
16.42083333,95.87916667,CVCH+8M Tawgyaung,CVCH+8M Tawgyaung
6.104166667,100.2875,579,579
-12.0375,-77.14583333,XV63+MW9,XV63+MW9
20.47916667,106.5708333,FHJC+328,FHJC+328
-6.195833333,107.8125,RR36+MX Pangarengan,RR36+MX Pangarengan
-21.62083333,-41.0375,9XH7+M2 São João da Barra,9XH7+M2 São João da Barra
31.45416667,31.97083333,FX3C+M8 Damietta Desert,FX3C+M8 Damietta Desert
-0.1375,109.1875,V56P+XX Punggur Besar,V56P+XX Punggur Besar
7.254166667,100.4375,7C3P+MX Pak Ro,7C3P+MX Pak Ro
-30.7375,30.4625,7F77+22 Port Shepstone,7F77+22 Port Shepstone
14.6875,42.97083333,MXPC+X8 Al Hudaydah,MXPC+X8 Al Hudaydah
34.25416667,120.2791667,773H+FXJ,773H+FXJ
40.27083333,120.4958333,7FCW+88 Xiaozhuangzizhen,7FCW+88 Xiaozhuangzizhen
38.49583333,117.6291667,FJWH+8M Nanpaihezhen,FJWH+8M Nanpaihezhen
-2.804166667,-41.84583333,55W3+8M Ilha Grande - State of Piauí,55W3+8M Ilha Grande - State of Piauí
8.295833333,79.8375,7RWP+8X Gangewadiya,7RWP+8X Gangewadiya
-29.8875,31.00416667,4263+XM Durban,4263+XM Durban
21.85416667,108.6041667,VJ33+MM Dapanpozhen,VJ33+MM Dapanpozhen
6.229166667,1.595833333,6HHW+P76,6HHW+P76
31.1875,29.87083333,5VPC+X8 Al Gomrok,5VPC+X8 Al Gomrok
5.5625,100.3541667,H963+XM Penaga,H963+XM Penaga
10.1375,104.8458333,4RQW+28 Lình Huỳnh,4RQW+28 Lình Huỳnh
13.57083333,43.27916667,H7CH+8M Kudhaysah,H7CH+8M Kudhaysah
-33.6125,-71.62916667,99QC+28 San Antonio,99QC+28 San Antonio
-10.5125,40.39583333,F9PW+X8 Namuiranga,F9PW+X8 Namuiranga
41.12916667,30.64583333,4JHW+M8 Karasu/Sakarya,4JHW+M8 Karasu/Sakarya
40.52083333,22.70416667,GPC3+8M Axios,GPC3+8M Axios
-4.354166667,120.3875,J9WP+8X Laoni,J9WP+8X Laoni
-3.3125,114.2958333,M7PW+X8 Batanjung,M7PW+X8 Batanjung
47.1875,38.5125,5GP6+XX Lomakin,5GP6+XX Lomakin
13.9125,-90.9625,W26Q+X2 La Barrita,W26Q+X2 La Barrita
16.9625,96.3625,X977+22 Yangon,X977+22 Yangon
22.9375,116.2458333,W6PW+X8 Huilai County,W6PW+X8 Huilai County
6.1125,4.770833333,4Q6C+X8 Aiyetoro,4Q6C+X8 Aiyetoro
43.6125,47.55416667,8HM9JH73+2M,8HM9JH73+2M
22.8125,113.3375,R86P+XX Shunde District,R86P+XX Shunde District
21.85416667,108.4625,VF37+M2X,VF37+M2X
32.37083333,121.3958333,99CW+88 Beikan Town,99CW+88 Beikan Town
36.6875,2.795833333,MQPW+X8 Douaouda,MQPW+X8 Douaouda
-6.845833333,110.5291667,5G3H+MM Tambakbulusan,5G3H+MM Tambakbulusan
-7.779166667,108.1458333,64CW+88 Cidadap,64CW+88 Cidadap
5.1375,-5.0125,4XQQ+22 Grand-Lahou,4XQQ+22 Grand-Lahou
55.32916667,21.2625,87H6+MX Rusnė,87H6+MX Rusnė
-15.97083333,46.4625,2FH7+M2 Andakalaka,2FH7+M2 Andakalaka
25.37916667,65.52083333,9GHC+M8 Kund Malir,9GHC+M8 Kund Malir
-30.20416667,30.80416667,QRW3+8M Umkomaas,QRW3+8M Umkomaas
30.40416667,120.6375,CJ3P+MX Haining,CJ3P+MX Haining
-0.7375,117.3208333,787C+28 Muara Kembang,787C+28 Muara Kembang
46.92083333,51.65416667,WMC3+8M Peshnoy,WMC3+8M Peshnoy
31.52083333,121.3041667,G8C3+8M Taicang,G8C3+8M Taicang
30.4625,49.0125,F276+2X Bandar Imam Khomeini,F276+2X Bandar Imam Khomeini
49.47916667,0.5125,FGH6+MX Quillebeuf-sur-Seine,FGH6+MX Quillebeuf-sur-Seine
4.970833333,-6.104166667,XVCW+88 Sassandra,XVCW+88 Sassandra
14.24583333,43.0625,63W6+8X Buyut al Muhamirah,63W6+8X Buyut al Muhamirah
24.7125,121.8208333,PR7C+28 Taiwan,PR7C+28 Taiwan
36.67916667,52.44583333,Mazandaran Province,Mazandaran Province
-33.9125,18.47083333,8 Auckland St,8 Auckland St
23.1125,70.50416667,4G63+XM Lakhdhirgadh,4G63+XM Lakhdhirgadh
37.75416667,120.5208333,QG3C+M8 Longkou,QG3C+M8 Longkou
38.59583333,26.80416667,HRW3+8M Foça/İzmir,HRW3+8M Foça/İzmir
7.395833333,99.5125,9GW6+8X Kantang Tai,9GW6+8X Kantang Tai
13.8375,-90.3375,RMQ7+22 Buena Vista,RMQ7+22 Buena Vista
35.3125,119.4375,8C6P+XX Xiaoguzhen,8C6P+XX Xiaoguzhen
32.04583333,120.4041667,2CW3+8M Jingjiang,2CW3+8M Jingjiang
30.0625,49.50416667,3G63+XM سجافی، استان خوزستان، Iran,3G63+XM سجافی، استان خوزستان، Iran
-34.07916667,18.7625,WQC6+8X Macassar,WQC6+8X Macassar
-7.029166667,106.5458333,XGCW+88 Cidadap,XGCW+88 Cidadap
22.8375,91.42916667,RCQH+2M Sonagazi Municipality,RCQH+2M Sonagazi Municipality
39.57083333,125.4625,HFC6+8X Sinanju,HFC6+8X Sinanju
15.17083333,51.12916667,54CH+8M Ais,54CH+8M Ais
8.7875,79.92916667,QWPH+XM Mutharipputhurai,QWPH+XM Mutharipputhurai
-3.320833333,114.5541667,MHH3+MM Tinggiran II,MHH3+MM Tinggiran II
31.80416667,120.7875,China,China
23.05416667,120.0708333,333C+M8 Taiwan,333C+M8 Taiwan
-2.529166667,40.50416667,FGC3+8M Kipini,FGC3+8M Kipini
-5.9625,106.2708333,27PC+X8 Lontar,27PC+X8 Lontar
16.82916667,96.09583333,R3HW+M8 Yangon,R3HW+M8 Yangon
37.54583333,27.1875,G5WP+8X Didim/Aydın,G5WP+8X Didim/Aydın
-6.8125,109.4875,5FPQ+X2 Kendalrejo,5FPQ+X2 Kendalrejo
-9.329166667,13.1625,M5C6+8X Belas,M5C6+8X Belas
15.79583333,-84.27916667,QPWC+88 Barra Patuca,QPWC+88 Barra Patuca
39.62083333,121.5375,JGCP+8X Santaixiang,JGCP+8X Santaixiang
-28.37916667,32.42083333,JCCC+88 Saint Lucia,JCCC+88 Saint Lucia
14.05416667,-91.54583333,3F33+MM Nueva Venecia,3F33+MM Nueva Venecia
14.50416667,-92.1875,GR36+MX Tilapa,GR36+MX Tilapa
-4.354166667,105.8041667,JRW3+8M Bumi Dipasena Sentosa,JRW3+8M Bumi Dipasena Sentosa
-39.87083333,-62.17083333,47GV4RHH+MM,47GV4RHH+MM
6.970833333,-11.5875,XCC6+8X Sulima,XCC6+8X Sulima
22.1375,91.87083333,4VQC+28 Juidondi,4VQC+28 Juidondi
13.2875,43.24583333,76PW+X8 Mocha,76PW+X8 Mocha
30.3625,-9.604166667,996W+X8 Agadir,996W+X8 Agadir
13.87083333,109.2458333,V6CW+88 Tuy Phước District,V6CW+88 Tuy Phước District
4.070833333,9.695833333,BP-10184,BP-10184
19.15416667,110.5625,5H37+83R,5H37+83R
26.75416667,119.5958333,QH3W+M8 Qiduzhen,QH3W+M8 Qiduzhen
51.47083333,0.320833333,F8CC+88 Grays,F8CC+88 Grays
-7.195833333,112.7375,RP3P+MM5,RP3P+MM5
4.829166667,6.720833333,RPHC+M8 Obokiri,RPHC+M8 Obokiri
16.35416667,95.02083333,923C+M8 Kanazogyaung,923C+M8 Kanazogyaung
35.49583333,35.82083333,FRWC+88 Latakia,FRWC+88 Latakia
23.42083333,116.8041667,CRC3+8M Longhu District,CRC3+8M Longhu District
10.39583333,-65.9875,92W7+82 Río Chico,92W7+82 Río Chico
37.12083333,10.1625,45C6+8X Dawwar az Zughb,45C6+8X Dawwar az Zughb
15.89583333,-87.79583333,V6W3+8M Saraguama,V6W3+8M Saraguama
21.5875,87.3125,H8Q6+2X Sataguhalia,H8Q6+2X Sataguhalia
32.54583333,120.9875,GXWQ+82 Yangkouzhen,GXWQ+82 Yangkouzhen
-6.779166667,108.8041667,6RC3+8M Kalisari,6RC3+8M Kalisari
2.604166667,-78.42083333,JH3H+MM Mosquera,JH3H+MM Mosquera
35.7875,-0.120833333,QVPH+XM Mers El Hadjadj,QVPH+XM Mers El Hadjadj
14.9875,-83.15416667,XRPW+X8 Cabo Viejo,XRPW+X8 Cabo Viejo
25.4625,119.2208333,F67C+28 Licheng District,F67C+28 Licheng District
-10.87916667,13.8125,4RC6+8X Caputo,4RC6+8X Caputo
-31.94583333,29.17916667,353H+MM Matokazini,353H+MM Matokazini
3.779166667,98.67083333,QMHC+M8 Hamparan Perak,QMHC+M8 Hamparan Perak
9.3375,-71.74583333,87Q3+2M La Ciega,87Q3+2M La Ciega
19.9625,106.0291667,X27H+2M Kim Sơn District,X27H+2M Kim Sơn District
-29.3875,31.3375,J86Q+X2 KwaDukuza,J86Q+X2 KwaDukuza
35.97916667,10.52916667,XGHH+MM Sidi Bou Ali,XGHH+MM Sidi Bou Ali
5.4625,-9.570833333,FC7H+2M River Cess Town,FC7H+2M River Cess Town
36.97083333,121.9708333,XXCC+88 Wendeng District,XXCC+88 Wendeng District
22.3625,88.95416667,VIII- Bhanderkhali Dag No 852/ 1254,VIII- Bhanderkhali Dag No 852/ 1254
13.27083333,99.94583333,7WCW+88 Bang Tabun,7WCW+88 Bang Tabun
-22.92916667,-43.77916667,36CC+88 Santa Cruz,36CC+88 Santa Cruz
22.80416667,113.3125,R836+MX Shunde District,R836+MX Shunde District
13.7375,-90.10416667,PVPW+X8 Garita Palmera,PVPW+X8 Garita Palmera
33.64583333,120.5791667,8Q52JHWH+8M,8Q52JHWH+8M
37.8875,126.4041667,VCP3+XM Kaepung,VCP3+XM Kaepung
20.84583333,110.1875,R5WP+8X Leigaozhen,R5WP+8X Leigaozhen
29.35416667,-89.40416667,9H3W+M8 Boothville-Venice,9H3W+M8 Boothville-Venice
4.745833333,6.954166667,PXW3+8M Bakana,PXW3+8M Bakana
1.8125,100.9291667,RW6H+XM Lenggadai Hulu,RW6H+XM Lenggadai Hulu
15.15416667,42.84583333,5R3W+M8 Urj,5R3W+M8 Urj
-33.72083333,25.84583333,7RHW+M8 Gqeberha,7RHW+M8 Gqeberha
3.3375,101.2291667,86QH+2M Kuala Selangor,86QH+2M Kuala Selangor
-29.97083333,30.97083333,27 Refinery Dr,27 Refinery Dr
-5.204166667,12.1375,Q4WP+8X Landana,Q4WP+8X Landana
21.42916667,110.3708333,C9HC+M8 Xinhuazhen,C9HC+M8 Xinhuazhen
-33.2875,27.47916667,PF6H+XM Hamburg,PF6H+XM Hamburg
10.22083333,106.6875,6MCP+8X Bình Đại District,6MCP+8X Bình Đại District
7.9625,49.84583333,XR7W+28 Eyl,XR7W+28 Eyl
40.72916667,26.0375,P2HP+MX Enez/Edirne,P2HP+MX Enez/Edirne
51.72083333,4.670833333,PMCC+88 Lage Zwaluwe,PMCC+88 Lage Zwaluwe
23.54583333,120.1458333,G4WW+88 Taiwan,G4WW+88 Taiwan
-7.204166667,112.6541667,Pergudangan Osowilangun Tio,Pergudangan Osowilangun Tio
12.90416667,-83.52083333,WF3H+MM La Barra,WF3H+MM La Barra
4.7875,8.404166667,QCP3+XM Ikang Passage,QCP3+XM Ikang Passage
22.3375,88.89583333,8VQW+28 Tushkhali,8VQW+28 Tushkhali
1.120833333,102.1208333,44CC+88 Belading,44CC+88 Belading
-11.9375,-77.1375,3V67+PFF,3V67+PFF
37.4625,49.94583333,FW7W+28 Kiashahr,FW7W+28 Kiashahr
33.69583333,-7.420833333,MHWJ+G2,MHWJ+G2
2.279166667,97.75416667,7QH3+8FR,7QH3+8FR
36.72083333,52.72916667,PPCH+8M Kohne Mahale Mirod,PPCH+8M Kohne Mahale Mirod
7.145833333,100.4625,4FW6+8X Khu Tao,4FW6+8X Khu Tao
-30.0125,-51.27083333,XPQH+2M Eldorado do Sul,XPQH+2M Eldorado do Sul
5.970833333,80.44583333,XCCW+6HW,XCCW+6HW
22.7125,91.2125,P676+2X Ghoshbagh,P676+2X Ghoshbagh
3.254166667,101.2958333,773W+M8 Jeram,773W+M8 Jeram
-6.0375,106.4541667,XF73+2M Pagedangan Ilir,XF73+2M Pagedangan Ilir
13.35416667,-89.0375,9X37+M2 El Pajaral,9X37+M2 El Pajaral
-25.17083333,33.5125,RGH6+MX Mexinguine,RGH6+MX Mexinguine
-28.80416667,32.02916667,52WH+8M Richards Bay,52WH+8M Richards Bay
23.69583333,117.2291667,M6WH+8M Zhaoan,M6WH+8M Zhaoan
28.67916667,-11.12083333,7CWCMVHH+MM,7CWCMVHH+MM
6.779166667,-58.1875,QRH6+MX Schoonord,QRH6+MX Schoonord
37.47916667,49.44583333,Bandar Anzali,Bandar Anzali
22.50416667,114.0375,G23Q+M2 Mai Po,G23Q+M2 Mai Po
44.9625,12.5125,XG76+2X Porto Tolle,XG76+2X Porto Tolle
31.17916667,121.8125,5RH6+MX Pudong,5RH6+MX Pudong
28.49583333,121.5791667,FHWH+8M Luqiao District,FHWH+8M Luqiao District
36.99583333,54.02916667,X2WH+8M Charqoli,X2WH+8M Charqoli
0.029166667,109.2458333,26HW+76P,26HW+76P
9.404166667,106.1375,C43P+MX Trần Đề District,C43P+MX Trần Đề District
39.70416667,-75.5125,PF3P+MX Wilmington,PF3P+MX Wilmington
-33.87083333,25.62916667,4JHH+MM Gqeberha,4JHH+MM Gqeberha
10.77916667,122.6541667,QMH3+MM Zarraga,QMH3+MM Zarraga
-8.4375,113.6041667,HJ63+XM Sabrang,HJ63+XM Sabrang
30.37083333,120.8875,9VCP+8X Haiyan,9VCP+8X Haiyan
36.8375,121.4541667,RFQ3+2M Rushan,RFQ3+2M Rushan
19.2875,72.9125,7WP6+XX Mira Bhayandar,7WP6+XX Mira Bhayandar
40.4375,122.2375,C6PQ+X2 Tuanshan Residential District,C6PQ+X2 Tuanshan Residential District
-7.429166667,106.7958333,HQCW+88 Sinarlaut,HQCW+88 Sinarlaut
29.17916667,50.6625,5MH6+MX Ramleh,5MH6+MX Ramleh
36.99583333,7.254166667,X7W3+8M El Marsa,X7W3+8M El Marsa
13.2125,80.32083333,687C+28 Chennai,687C+28 Chennai
13.4375,-16.14583333,CVP3+XM Kemoto,CVP3+XM Kemoto
46.15416667,34.8125,5R36+MX Heniches'k,5R36+MX Heniches'k
5.920833333,-10.07083333,WWCH+8M Edina,WWCH+8M Edina
-8.304166667,113.3041667,M8W3+8M Wotgalih,M8W3+8M Wotgalih
31.94583333,120.3041667,China,China
6.5125,81.70416667,GP73+2M Meegaha Beraliya,GP73+2M Meegaha Beraliya
6.545833333,-57.74583333,G7W3+8M Mahaicony,G7W3+8M Mahaicony
23.62916667,117.0291667,J2HH+MM Huanggangzhen,J2HH+MM Huanggangzhen
38.62083333,117.5708333,JHCC+88 Gulin,JHCC+88 Gulin
16.34583333,81.42083333,8CWC+88 Nidamarru,8CWC+88 Nidamarru
-30.0125,30.92916667,44 Wavecrest Rd,44 Wavecrest Rd
-6.154166667,38.84583333,RRWW+88 Kisauke,RRWW+88 Kisauke
-12.27083333,-76.90416667,P3HW+M8 Lurin,P3HW+M8 Lurin
31.60416667,121.2458333,J63W+M8 Taicang,J63W+M8 Taicang
43.3625,131.7958333,9Q7W+28 Tavrichanka,9Q7W+28 Tavrichanka
32.9125,13.24583333,W66W+X8 Tripoli,W66W+X8 Tripoli
-6.670833333,111.1875,85HP+MX Raci,85HP+MX Raci
2.354166667,111.5125,9G36+MX Bintangor,9G36+MX Bintangor
7.054166667,125.6125,3J37+M2 Davao City,3J37+M2 Davao City
21.7875,108.8458333,QRPW+X8 Dongchangzhen,QRPW+X8 Dongchangzhen
-33.49583333,27.1375,G43P+MX Gibraltar Rock,G43P+MX Gibraltar Rock
36.77916667,3.229166667,Q6HH+VJ,Q6HH+VJ
16.5625,107.6041667,HJ63+XM Hương Trà District,HJ63+XM Hương Trà District
33.60416667,-7.620833333,J93H+JJ8,J93H+JJ8
-6.079166667,12.47083333,WFCC+88 Soyo,WFCC+88 Soyo
2.504166667,100.1625,G537+M2 Tanjung Sarang Elang,G537+M2 Tanjung Sarang Elang
-6.004166667,106.3958333,X9WW+88 Pedaleman,X9WW+88 Pedaleman
15.92916667,-85.65416667,W8HW+M8 Santa Rosa de Aguan,W8HW+M8 Santa Rosa de Aguan
22.27916667,72.9125,7WH6+MX Gajana,7WH6+MX Gajana
29.67916667,32.3625,M9H7+M2 Erban Atekah and Al Manayef,M9H7+M2 Erban Atekah and Al Manayef
30.27083333,121.4291667,7CCH+8M Cixi,7CCH+8M Cixi
2.395833333,101.9708333,9XWC+88 Linggi,9XWC+88 Linggi
8.379166667,100.1708333,95HC+M8 Pak Phanang Fangtawanok,95HC+M8 Pak Phanang Fangtawanok
16.12083333,120.3875,49CP+FXC,49CP+FXC
30.74583333,121.3791667,China,China
-29.99583333,-51.22916667,2Q3C+M8 Arquipélago,2Q3C+M8 Arquipélago
13.95416667,-91.3125,XM3P+MX Tecojate,XM3P+MX Tecojate
23.55416667,116.8875,HV3P+MX Chenghai District,HV3P+MX Chenghai District
37.0625,119.2541667,3763+XM Hanting District,3763+XM Hanting District
3.979166667,98.54583333,XGHW+M8 Tapak Kuda,XGHW+M8 Tapak Kuda
10.79583333,75.94583333,QWVW+WP8,QWVW+WP8
32.20416667,121.3791667,693H+MM Dingdian Town,693H+MM Dingdian Town
16.54583333,97.6625,GMW7+82 Babugon,GMW7+82 Babugon
39.2125,49.02083333,8HFF627C+28,8HFF627C+28
10.10416667,106.6791667,4M3J+G2Q,4M3J+G2Q
24.39583333,117.9041667,9WW3+8M Fugongzhen,9WW3+8M Fugongzhen
6.2375,102.0958333,63PW+X8 Tumpat,63PW+X8 Tumpat
-19.64583333,44.42916667,9C3H+MM Ambozaka,9C3H+MM Ambozaka
37.95416667,27.27083333,X73C+M8 Selçuk/İzmir,X73C+M8 Selçuk/İzmir
31.0125,121.9041667,2W73+2M Binhai Town,2W73+2M Binhai Town
-6.8625,110.1625,45Q7+22 Margorejo,45Q7+22 Margorejo
5.379166667,100.3708333,99HC+M8 Perai,99HC+M8 Perai
39.1625,118.6791667,5M6H+XM Caofeidian District,5M6H+XM Caofeidian District
-8.379166667,113.4791667,JFCH+8M Lojejer,JFCH+8M Lojejer
10.47083333,107.3625,F9C7+82 Đất Đỏ District,F9C7+82 Đất Đỏ District
24.4125,120.6041667,CJ74+P3,CJ74+P3
13.19583333,-88.3375,5MW7+82 Hacienda La Chepona,5MW7+82 Hacienda La Chepona
22.87916667,115.3125,V8H6+MX Lian'anzhen,V8H6+MX Lian'anzhen
22.72916667,120.2541667,No. 54,No. 54
11.5375,122.8625,GVP7+X2 Panay,GVP7+X2 Panay
34.92083333,119.1958333,W5CW+FJ6,W5CW+FJ6
24.75416667,67.47083333,QF3C+M8 Bin Qasim Town,QF3C+M8 Bin Qasim Town
6.7125,101.6375,PJ6Q+P4X,PJ6Q+P4X
9.745833333,106.5375,PGWQ+82 Cầu Ngang District,PGWQ+82 Cầu Ngang District
13.82083333,121.4625,RFC6+8X Sariaya,RFC6+8X Sariaya
38.12083333,118.2291667,8PCW46CH+8M,8PCW46CH+8M
19.19583333,-69.62083333,59WH+8M Sanchez,59WH+8M Sanchez
6.279166667,1.8125,7RH6+MX Grand Popo,7RH6+MX Grand Popo
-7.695833333,113.9375,Jl. Raya Pelabuhan No.164,Jl. Raya Pelabuhan No.164
22.8875,115.6708333,VMQC+28 Wucuoxin Town,VMQC+28 Wucuoxin Town
39.40416667,127.4541667,CF33+MM Songjae-ri,CF33+MM Songjae-ri
42.1875,41.64583333,5JPW+X8 Poti,5JPW+X8 Poti
36.8125,53.1125,R467+X2 Khazar Abad,R467+X2 Khazar Abad
6.8875,101.2791667,V7PH+HX6 4120 Tambon Bana,V7PH+HX6 4120 Tambon Bana
6.145833333,-10.3875,4JW7+82 Marshall,4JW7+82 Marshall
5.795833333,0.654166667,QMW3+8M Ada Foah,QMW3+8M Ada Foah
18.74583333,-95.74583333,P7W3+8M Paso Nacional,P7W3+8M Paso Nacional
7.304166667,79.8375,8R3Q+M24,8R3Q+M24
39.04583333,118.2791667,27WH+8M Nanbao Town,27WH+8M Nanbao Town
39.3375,122.2458333,86QW+28 Daliujiazhen,86QW+28 Daliujiazhen
34.8375,119.1791667,R5QJ+32G,R5QJ+32G
17.50416667,120.4125,GC37+M2 Santa,GC37+M2 Santa
9.4875,80.4875,FFPQ+X2 Pachchilapalli,FFPQ+X2 Pachchilapalli
-7.470833333,112.8208333,GRHC+M8 Kalanganyar,GRHC+M8 Kalanganyar
25.1125,121.2458333,466W+X8 Taiwan,466W+X8 Taiwan
11.54583333,109.0125,286 Dã Tượng,286 Dã Tượng
21.55416667,111.4458333,HC3W+M8 Shabazhen,HC3W+M8 Shabazhen
-22.7625,-43.25416667,6PPW+X8 Duque de Caxias,6PPW+X8 Duque de Caxias
22.89583333,115.6125,VJW7+82 Shangyingzhen,VJW7+82 Shangyingzhen
2.654166667,103.6208333,9971,9971
-16.72083333,-72.42083333,7HHH+MM Quilca,7HHH+MM Quilca
35.60416667,119.6458333,JJ3W+M8 Liangchengzhen,JJ3W+M8 Liangchengzhen
31.75416667,121.5958333,QH3W+M8 Qidong,QH3W+M8 Qidong
9.0375,104.8208333,2RPC+W8W,2RPC+W8W
3.770833333,98.7125,QPC6+8X Pematang Johar,QPC6+8X Pematang Johar
38.05416667,-121.9208333,333H+MM Bay Point,333H+MM Bay Point
22.74583333,113.7541667,Guang Shen Yan Jiang Gao Su Gong Lu,Guang Shen Yan Jiang Gao Su Gong Lu
32.07916667,120.6291667,3JHH+MM Rugao,3JHH+MM Rugao
9.020833333,105.4125,2CC7+82 Đầm Dơi District,2CC7+82 Đầm Dơi District
13.8875,120.9041667,VWP3+QJ6,VWP3+QJ6
14.82083333,120.5791667,RHCH+8M Lubao,RHCH+8M Lubao
18.9875,105.6125,XJP7+X2 Diễn Châu District,XJP7+X2 Diễn Châu District
37.09583333,50.3875,39WP+8X Kelachay,39WP+8X Kelachay
16.50416667,97.65416667,GM33+MM Mawlamyine,GM33+MM Mawlamyine
-8.279166667,142.4041667,PCC3+8M Mugumugu,PCC3+8M Mugumugu
9.429166667,-75.9125,C3HQ+M2 San Bernardo del Viento,C3HQ+M2 San Bernardo del Viento
54.3125,18.9375,8W6P+XX Gdańsk,8W6P+XX Gdańsk
9.654166667,80.07916667,M33H+MM Chavakachcheri,M33H+MM Chavakachcheri
33.04583333,120.8208333,2RWC+88 Chuandong Town,2RWC+88 Chuandong Town
-31.07916667,30.19583333,W5CW+46,W5CW+46
1.645833333,103.9625,JXW6+8X Ayer Tawar,JXW6+8X Ayer Tawar
-3.695833333,119.4541667,8F33+MM Bababinanga,8F33+MM Bababinanga
4.854166667,8.279166667,V73H+MM James Crossing,V73H+MM James Crossing
5.2125,-9.345833333,6M73+2M Banka Town,6M73+2M Banka Town
20.77083333,106.7541667,QQC3+8M Dương Kinh,QQC3+8M Dương Kinh
31.14583333,33.8125,4RW6+GP,4RW6+GP
10.37083333,104.4875,9FCQ+CC2,9FCQ+CC2
36.59583333,35.5875,HHWQ+82 Yumurtalık/Adana,HHWQ+82 Yumurtalık/Adana
-6.095833333,106.9625,Jl. Marunda Kongsi No.27,Jl. Marunda Kongsi No.27
36.85416667,7.954166667,VX33+MM Berrihane,VX33+MM Berrihane
19.8375,-71.67916667,R8QC+28 Monte Cristi,R8QC+28 Monte Cristi
37.47916667,49.4625,FFH7+M2 Bandar Anzali,FFH7+M2 Bandar Anzali
53.67083333,-0.6875,M8C6+8X Scunthorpe,M8C6+8X Scunthorpe
31.52083333,31.02083333,G2CC+88 Al Abaad Al Bahreyah,G2CC+88 Al Abaad Al Bahreyah
17.7375,106.4291667,PCPH+XM Quảng Trạch District,PCPH+XM Quảng Trạch District
12.3125,98.77916667,8Q6H+XM Pyinwun,8Q6H+XM Pyinwun
10.02083333,122.7291667,2PCH+8M Ilog,2PCH+8M Ilog
-7.895833333,110.0291667,423H+CQW Jembatan Merah Kadilangu,423H+CQW Jembatan Merah Kadilangu
10.50416667,122.8125,GR36+XHX,GR36+XHX
34.3625,10.19583333,956W+X8 Al Hushayshinah,956W+X8 Al Hushayshinah
1.820833333,102.8958333,RVCW+88 Batu Pahat,RVCW+88 Batu Pahat
5.2375,115.4708333,6FPC+X8 Beaufort,6FPC+X8 Beaufort
24.94583333,118.6875,WMWP+8X Luojiang District,WMWP+8X Luojiang District
-7.7875,109.6458333,6J7W+28 Ayamputih,6J7W+28 Ayamputih
3.854166667,100.8458333,VR3W+M8 Sungai Sumun,VR3W+M8 Sungai Sumun
15.14583333,108.8708333,4VWC+88 Son Tinh District,4VWC+88 Son Tinh District
21.3375,110.6208333,8JQC+28 Wuchuan,8JQC+28 Wuchuan
44.4375,46.8125,CRP6+XX Put' Rybaka,CRP6+XX Put' Rybaka
5.7875,-57.1375,QVP7+X2 South Drain,QVP7+X2 South Drain
14.65416667,120.9458333,MW3W+VH6,MW3W+VH6
6.3625,81.52916667,9G6H+XM Yala,9G6H+XM Yala
-7.6125,112.8875,9VQP+2X Semare,9VQP+2X Semare
1.6375,-79.00416667,67H2JXQW+28,67H2JXQW+28
-6.2375,107.7125,QP76+2X Tanjungtiga,QP76+2X Tanjungtiga
31.45416667,30.9125,FW36+MX AR Radif,FW36+MX AR Radif
6.3125,1.9625,8X67+X2 Gbézoumé,8X67+X2 Gbézoumé
14.4375,-92.0875,CWP7+X2 Manchon,CWP7+X2 Manchon
36.12916667,120.0958333,43HW+M8 Jiaozhou City,43HW+M8 Jiaozhou City
16.87916667,107.1625,V5H7+M2 Triệu Phong District,V5H7+M2 Triệu Phong District
0.170833333,102.5791667,5HCH+8M Teluk Meranti,5HCH+8M Teluk Meranti
9.470833333,80.25416667,F7C3+8M Nallur,F7C3+8M Nallur
33.12083333,11.6125,4JC7+82 Ra's Ajdir,4JC7+82 Ra's Ajdir
31.92083333,-114.9541667,W2CW+88 Alto Golfo de California y Delta del Río Colorado,W2CW+88 Alto Golfo de California y Delta del Río Colorado
-6.954166667,110.4041667,Lingkar Jl. Tj. Mas Raya No.A1,Lingkar Jl. Tj. Mas Raya No.A1
24.3375,120.5541667,8HQ3+2M Taiwan,8HQ3+2M Taiwan
8.645833333,78.12916667,J4WH+8M Palayakkayal,J4WH+8M Palayakkayal
13.59583333,100.5958333,30/12 Prakhon Chai Rd,30/12 Prakhon Chai Rd
20.64583333,93.00416667,J2W3+8M Myathle,J2W3+8M Myathle
16.0625,-16.47916667,3G6C+X8 Saint Louis,3G6C+X8 Saint Louis
22.32916667,88.67083333,8MHC+M8 Matla,8MHC+M8 Matla
52.6125,5.645833333,A6,A6
39.65416667,119.3125,80 A Na Ya Xiao Zhen Nan Qu,80 A Na Ya Xiao Zhen Nan Qu
33.45416667,120.6208333,FJ3C+M8 Sanlongzhen,FJ3C+M8 Sanlongzhen
-35.72916667,-57.35416667,48P47JCW+88,48P47JCW+88
36.67083333,51.45416667,نیکوکار,نیکوکار
-4.0375,144.6958333,XM7W+28 Botbot,XM7W+28 Botbot
-30.1125,30.85416667,VVQ3+2M Kingsburgh,VVQ3+2M Kingsburgh
24.0875,120.4125,3CQ7+22 Taiwan,3CQ7+22 Taiwan
30.27916667,121.0958333,73HW+M8 Yuyao,73HW+M8 Yuyao
-4.120833333,105.7875,VQHP+8GX,VQHP+8GX
37.54583333,120.2458333,G6WW+88 Zhaoyuan,G6WW+88 Zhaoyuan
5.170833333,100.4291667,5CCH+8M Parit Buntar,5CCH+8M Parit Buntar
-10.4625,-36.40416667,GHPW+X8 Piaçabuçu - State of Alagoas,GHPW+X8 Piaçabuçu - State of Alagoas
45.59583333,47.72083333,HPWC+88 Vyshka,HPWC+88 Vyshka
30.64583333,121.1625,J5W7+82 Pinghu,J5W7+82 Pinghu
9.495833333,-84.3375,FMW7+82 Provincia de Puntarenas,FMW7+82 Provincia de Puntarenas
33.7625,-118.1958333,87 Aquarium Way,87 Aquarium Way
10.5375,107.0208333,G2PC+X8 Nhơn Trạch District,G2PC+X8 Nhơn Trạch District
47.2875,-1.970833333,72PH+XM Frossay,72PH+XM Frossay
40.7875,23.85416667,QVP3+XM Amfipoli,QVP3+XM Amfipoli
21.89583333,88.4625,VFW6+8X Damkal,VFW6+8X Damkal
25.54583333,66.4375,7JQ8GCWP+8X,7JQ8GCWP+8X
-1.595833333,137.8625,CV36+MX Tamakuri,CV36+MX Tamakuri
-35.74583333,-57.3625,48P47J3Q+M2,48P47J3Q+M2
-0.1125,99.7625,VQQ6+2X Katiagan,VQQ6+2X Katiagan
20.20416667,93.30416667,6833+MM Gwedaukchaung,6833+MM Gwedaukchaung
25.2375,121.6375,6JPP+XX Taiwan,6JPP+XX Taiwan
11.9625,-14.9875,X276+2X Poindom,X276+2X Poindom
8.504166667,124.6541667,GM34+P2V,GM34+P2V
53.32083333,7.295833333,87CW+88 Jemgum,87CW+88 Jemgum
22.57916667,113.4791667,HFHH+MM Zhongshan,HFHH+MM Zhongshan
17.42916667,106.6458333,CJHW+M8 Đồng Hới,CJHW+M8 Đồng Hới
24.04583333,117.7041667,2PW3+2HX,2PW3+2HX
22.10416667,87.9625,4X46+474,4X46+474
20.54583333,-77.22083333,77G4GQWH+8M,77G4GQWH+8M
41.02916667,28.95416667,Yavuz Sultan Selim,Yavuz Sultan Selim
15.5375,108.5958333,GHPW+X8 Núi Thành District,GHPW+X8 Núi Thành District
2.395833333,45.95416667,6HJ79XW3+8M,6HJ79XW3+8M
40.84583333,19.39583333,R9WW+88 Hastukasi,R9WW+88 Hastukasi
-13.52083333,40.52083333,FGHC+M8 Lurio,FGHC+M8 Lurio
6.229166667,80.05416667,63H3+JHP,63H3+JHP
9.320833333,76.37916667,89CH+9MV,89CH+9MV
31.27083333,30.19583333,75CW+88 Edku,75CW+88 Edku
41.39583333,28.5125,9GW6+8X Arnavutköy/İstanbul,9GW6+8X Arnavutköy/İstanbul
13.4125,-87.6125,C96Q+X2 Puerto Grande,C96Q+X2 Puerto Grande
-7.804166667,108.2625,57W6+3JG,57W6+3JG
13.8875,43.22916667,V6QH+2M أبو زهر، Yemen,V6QH+2M أبو زهر، Yemen
22.9625,116.2875,X77Q+22 Huilai County,X77Q+22 Huilai County
33.24583333,-8.4875,6GV6+RVQ,6GV6+RVQ
-0.779166667,100.2625,67C6+8X Katapiang,67C6+8X Katapiang
21.59583333,109.6625,HMW7+82 Shankouzhen,HMW7+82 Shankouzhen
24.84583333,120.9375,RWWP+8X Taiwan,RWWP+8X Taiwan
14.5375,-92.22083333,GQPH+XM La Isla,GQPH+XM La Isla
10.2125,122.8458333,6R7W+28 Binalbagan,6R7W+28 Binalbagan
22.64583333,90.07083333,J3WC+M4J,J3WC+M4J
30.85416667,121.7958333,VQ3W+M8 Luchaogang Farm,VQ3W+M8 Luchaogang Farm
24.67916667,118.1625,101 Pu Tou Li,101 Pu Tou Li
29.27083333,121.5458333,7GCW+88 Ninghai County,7GCW+88 Ninghai County
-21.44583333,43.5125,HG36+MX Bekoropoka,HG36+MX Bekoropoka
7.929166667,81.52916667,WGHH+MM Kayankerni,WGHH+MM Kayankerni
2.970833333,99.8125,XRC7+F3J,XRC7+F3J
6.0375,80.80416667,59 Madilla Road,59 Madilla Road
22.4625,120.4375,FC7P+2X Taiwan,FC7P+2X Taiwan
9.245833333,78.8375,6RWP+8X Sethu Karai,6RWP+8X Sethu Karai
25.89583333,36.6875,VMWP+8X Khurayyim Sa'id Saudi Arabia,VMWP+8X Khurayyim Sa'id Saudi Arabia
18.2125,83.9375,6W7P+2X Bontalakoduru,6W7P+2X Bontalakoduru
-2.4125,105.1125,H4Q7+22 Juru Taro,H4Q7+22 Juru Taro
6.979166667,79.87083333,29,29
5.5375,5.670833333,GMPC+X8 Dodo Bank,GMPC+X8 Dodo Bank
-6.029166667,106.5625,XHC7+G32,XHC7+G32
19.65416667,85.4875,MF3Q+M2 Baghamunda,MF3Q+M2 Baghamunda
13.12916667,45.45416667,4FH3+MM Zinjibar,4FH3+MM Zinjibar
7.329166667,125.7458333,8PHW+M8 Tagum,8PHW+M8 Tagum
22.7625,121.1708333,Q57C+28 Taiwan,Q57C+28 Taiwan
5.895833333,102.4875,VFWQ+82 Pasir Puteh,VFWQ+82 Pasir Puteh
2.495833333,100.1125,F4W7+82 Tanjung Sarang Elang,F4W7+82 Tanjung Sarang Elang
38.92916667,26.97916667,Çandarlı Mh,Çandarlı Mh
6.0625,80.8875,3V7Q+F7J,3V7Q+F7J
11.1625,75.80416667,5R63+XM Kozhikode,5R63+XM Kozhikode
21.82916667,112.0125,R2H6+MX Yashaozhen,R2H6+MX Yashaozhen
36.30416667,34.02916667,8G8P823H+MM,8G8P823H+MM
36.92083333,121.8625,China,China
35.7125,139.8541667,1-chōme-1-1 Shinkoiwa,1-chōme-1-1 Shinkoiwa
36.82083333,53.1625,R5C6+8X Tejen Lateh,R5C6+8X Tejen Lateh
-6.745833333,146.9708333,7X3C+M8 Lae,7X3C+M8 Lae
22.4875,89.82083333,FRPC+X8 Baharbunia Union,FRPC+X8 Baharbunia Union
-22.7875,-43.27083333,6P7H+2M Duque de Caxias,6P7H+2M Duque de Caxias
8.8375,-13.09583333,RWQ3+2M Katik,RWQ3+2M Katik
36.77083333,10.29583333,Q7CW+88 Rades,Q7CW+88 Rades
-4.445833333,-37.7875,H637+M2 Fortim,H637+M2 Fortim
39.80416667,127.5875,RH3P+MX Hamhung,RH3P+MX Hamhung
10.19583333,76.19583333,55WW+88 Moothakunnam,55WW+88 Moothakunnam
51.22916667,4.395833333,Thonetlaan 133F,Thonetlaan 133F
7.504166667,81.75416667,GQ33+MM Mandur,GQ33+MM Mandur
19.37083333,85.0625,93C6+8X Pallibandha,93C6+8X Pallibandha
12.2625,109.1958333,756W+V5V,756W+V5V
-7.7625,109.4708333,6FPC+X8 Tambakmulyo,6FPC+X8 Tambakmulyo
-6.870833333,110.5125,4GH6+MX Surodadi,4GH6+MX Surodadi
-19.9875,48.7625,2Q76+2X Ambodiharina,2Q76+2X Ambodiharina
25.67083333,119.4708333,MFCC+88 Fuqing,MFCC+88 Fuqing
20.57083333,92.7125,HPC6+8X Kyaung Taung,HPC6+8X Kyaung Taung
30.0875,47.94583333,3WQW+28 Um Qasr,3WQW+28 Um Qasr
5.320833333,103.1041667,84C3+8M Kuala Terengganu,84C3+8M Kuala Terengganu
-7.504166667,144.3791667,F9WH+8M Ero,F9WH+8M Ero
3.779166667,103.3291667,434,434
35.57083333,119.6291667,HJCH+8M Liangchengzhen,HJCH+8M Liangchengzhen
-18.1375,178.5291667,VG6H+XM Vutia-Muana Ira,VG6H+XM Vutia-Muana Ira
28.6375,121.5125,1981 Kai Fa Da Dao Dong Duan,1981 Kai Fa Da Dao Dong Duan
4.904166667,-2.279166667,WP3C+M8 Atababo,WP3C+M8 Atababo
8.3875,100.1375,94QP+2X Khlong Noi,94QP+2X Khlong Noi
-8.970833333,-78.64583333,29H3+MM Puerto Santa,29H3+MM Puerto Santa
24.8625,66.87083333,VV6C+X8 Keamari,VV6C+X8 Keamari
-6.1875,107.6041667,RJ63+XM Muarabaru,RJ63+XM Muarabaru
32.94583333,120.8958333,8Q42WVWW+88,8Q42WVWW+88
35.0875,119.2958333,37QW+28 Ganyu District,37QW+28 Ganyu District
-6.1375,107.4625,VF66+XX Tanjungjaya,VF66+XX Tanjungjaya
22.79583333,90.77916667,QQWH+8M Rahmat Khali,QQWH+8M Rahmat Khali
30.1625,121.5375,5G6P+XX Cixi,5G6P+XX Cixi
6.454166667,-58.59583333,68R3FC33+MM,68R3FC33+MM
40.47916667,122.3291667,F8HH+MM Xishi District,F8HH+MM Xishi District
21.89583333,72.60416667,VJW3+8M Aladar,VJW3+8M Aladar
14.6125,42.9875,JX6Q+X2 Ad Durayhimi,JX6Q+X2 Ad Durayhimi
40.60416667,120.7541667,China,China
14.00416667,-91.42916667,2H3C+M8 Barra Madre Vieja,2H3C+M8 Barra Madre Vieja
1.204166667,108.9875,6X3Q+M2 Penjajap,6X3Q+M2 Penjajap
31.09583333,32.52916667,3GWH+8M East of Al Tafreah,3GWH+8M East of Al Tafreah
27.97916667,120.7541667,XQH3+J2P,XQH3+J2P
-8.220833333,111.0958333,Q3JW+3F4,Q3JW+3F4
2.979166667,99.80416667,XRH3+P8M,XRH3+P8M
35.02916667,35.89583333,2VHW+M8 Marqueh,2VHW+M8 Marqueh
59.47083333,28.04583333,F2CW+88 Venekiulya,F2CW+88 Venekiulya
24.85416667,120.9458333,No. 3,No. 3
10.24583333,-61.50416667,6FWW+88 South Oropouche,6FWW+88 South Oropouche
4.729166667,6.870833333,PVJC+223,PVJC+223
10.55416667,-61.4625,HG3Q+M2 Warner,HG3Q+M2 Warner
22.90416667,113.4708333,WF3C+M8 Panyu District,WF3C+M8 Panyu District
5.245833333,97.4875,6FWQ+82 Meunasah Asan,6FWQ+82 Meunasah Asan
6.245833333,102.0791667,63VH+VP,63VH+VP
21.44583333,69.7875,CQWQ+WFH,CQWQ+WFH
-6.854166667,109.4125,4CW7+G5R,4CW7+G5R
-6.320833333,108.1375,M4HP+MX Cemara,M4HP+MX Cemara
37.39583333,119.9375,9WWP+8X Sanshandao Residential District,9WWP+8X Sanshandao Residential District
9.0125,78.27083333,277C+28 Vaippar,277C+28 Vaippar
7.0375,100.7208333,2PPC+X8 Na Thap,2PPC+X8 Na Thap
35.2125,35.95416667,6X73+2M Baniyas,6X73+2M Baniyas
-34.2875,-58.57916667,PC6C+X8 Rincón de Milberg,PC6C+X8 Rincón de Milberg
31.2875,121.7125,7PP6+XX Pudong,7PP6+XX Pudong
2.579166667,99.99583333,HXHW+M8 Sentang River,HXHW+M8 Sentang River
39.47916667,122.5541667,FHH4+H42,FHH4+H42
31.9875,120.6125,XJP7+X2 Zhangjiagang,XJP7+X2 Zhangjiagang
-5.5625,-80.87083333,C4PH+XM Chullachy,C4PH+XM Chullachy
-7.829166667,109.8291667,5RCG+2WX,5RCG+2WX
30.59583333,121.0791667,H3WH+8M Pinghu,H3WH+8M Pinghu
14.12916667,-91.67083333,48HH+MM Tulate,48HH+MM Tulate
36.7125,52.64583333,PJ6W+MJP,PJ6W+MJP
9.445833333,80.15416667,C5W3+8M Nawaladi,C5W3+8M Nawaladi
33.7375,-118.1125,PVPQ+X2 Seal Beach,PVPQ+X2 Seal Beach
7.9875,123.6458333,XJPW+X8 Tambulig,XJPW+X8 Tambulig
13.4375,-87.8375,C5P7+X2 Los Jiotes,C5P7+X2 Los Jiotes
18.49583333,110.0875,F3WP+8X Lingshui Li Autonomous County,F3WP+8X Lingshui Li Autonomous County
23.32916667,120.1291667,84HH+MM Taiwan,84HH+MM Taiwan
5.145833333,-3.279166667,4PWC+88 Assinie-Mafia,4PWC+88 Assinie-Mafia
35.29583333,-1.470833333,7GWJ+F4P,7GWJ+F4P
-7.6375,112.9625,9X66+XX Tambak Lekok,9X66+XX Tambak Lekok
7.7375,79.79583333,PQQW+CG4,PQQW+CG4
22.92083333,120.1791667,702,702
18.40416667,105.8875,CV4P+2WX,CV4P+2WX
-31.6625,18.19583333,85QW+28 Olifants River Settlement,85QW+28 Olifants River Settlement
5.779166667,118.3458333,6PQWQ8HW+M8,6PQWQ8HW+M8
35.32916667,35.92083333,8WHC+M8 Jableh,8WHC+M8 Jableh
30.1625,120.8875,5V6P+XX Shangyu District,5V6P+XX Shangyu District
21.67083333,72.85416667,MVC3+8M Dhanturiya,MVC3+8M Dhanturiya
39.59583333,125.4541667,HFW3+8M Reibi-do,HFW3+8M Reibi-do
-7.420833333,106.6708333,HMHC+M8 Cibitung,HMHC+M8 Cibitung
16.02083333,108.2208333,26CC+88 Cẩm Lệ District,26CC+88 Cẩm Lệ District
-3.245833333,114.1125,Q437+M2 Central Bahaur,Q437+M2 Central Bahaur
36.97083333,6.5875,XHCQ+H96,XHCQ+H96
10.27083333,106.7208333,7PCC+88 Tân Phú Đông District,7PCC+88 Tân Phú Đông District
28.02083333,120.7041667,2PC3+8M Lucheng District,2PC3+8M Lucheng District
22.84583333,115.5458333,RGWW+88 Dahuzhen,RGWW+88 Dahuzhen
26.75416667,55.44583333,QC3W+M8 Ayeshehabad,QC3W+M8 Ayeshehabad
8.554166667,124.7458333,HP3W+M8 Tagoloan,HP3W+M8 Tagoloan
32.7375,120.8541667,PVP3+WG3,PVP3+WG3
9.945833333,-13.6875,W8W6+8X Kakounsou,W8W6+8X Kakounsou
4.420833333,98.27916667,C7CH+8M Kw Pusung Kapal,C7CH+8M Kw Pusung Kapal
11.3625,79.8125,9R66+XX Kattur,9R66+XX Kattur
31.72083333,121.6875,PMCP+8X Qidong,PMCP+8X Qidong
8.5625,79.92083333,6JWXHW6C+X8,6JWXHW6C+X8
40.44583333,128.9208333,CWWC+88 Tanchŏn,CWWC+88 Tanchŏn
-2.3375,104.6375,MJ6P+XX Perumpung Raya,MJ6P+XX Perumpung Raya
5.1375,-4.979166667,42QC+28 Braffédon,42QC+28 Braffédon
23.4625,120.1791667,F57H+2M Taiwan,F57H+2M Taiwan
39.7375,123.2125,P6Q6+2X Heidaozhen,P6Q6+2X Heidaozhen
39.67916667,123.0041667,M2H3+MM Chengguan Residential District,M2H3+MM Chengguan Residential District
4.0375,9.5625,2HP6+XX Bonabéri,2HP6+XX Bonabéri
31.1125,32.50416667,4G63+XM East of Al Tafreah,4G63+XM East of Al Tafreah
19.27916667,108.6708333,7MHC+M8 Dongfang,7MHC+M8 Dongfang
9.129166667,78.4875,4FHQ+M2 Periakulam,4FHQ+M2 Periakulam
8.120833333,81.45416667,4FC3+8M Vakarai,4FC3+8M Vakarai
-23.9875,-46.29583333,Av. Alm. Saldanha da Gama,Av. Alm. Saldanha da Gama
23.00416667,120.1458333,243W+M8 Taiwan,243W+M8 Taiwan
7.379166667,-12.34583333,9MH3+MM Nyandehun,9MH3+MM Nyandehun
-31.24583333,30.04583333,Q23W+M8 Nkondwana,Q23W+M8 Nkondwana
11.94583333,-15.02083333,WXWH+8M Ganjauara,WXWH+8M Ganjauara
21.77083333,111.6875,QMCP+8X Yangxi County,QMCP+8X Yangxi County
7.704166667,79.79583333,PQ3W+M8 Udappu,PQ3W+M8 Udappu
-8.5125,126.0125,F2Q7+47M,F2Q7+47M
-30.0125,-51.22083333,XQQH+2M Arquipélago,XQQH+2M Arquipélago
-11.80416667,-37.54583333,5FW3+8M Conde - State of Bahia,5FW3+8M Conde - State of Bahia
13.42916667,46.67083333,CMHC+M8 Al Hanad,CMHC+M8 Al Hanad
14.80416667,120.5541667,RH33+MM Hermosa,RH33+MM Hermosa
-2.379166667,104.8791667,JVCH+8M Sungsang III,JVCH+8M Sungsang III
19.97916667,109.7458333,XPHW+M8 Lingao County,XPHW+M8 Lingao County
-34.67083333,-58.30416667,Juan B. Justo 3053,Juan B. Justo 3053
15.3625,108.7791667,Thôn Tân Hy 2,Thôn Tân Hy 2
-6.8875,110.2291667,466H+XM Kalibuntu Wetan,466H+XM Kalibuntu Wetan
34.94583333,35.87916667,WVWH+8M Tartus‎,WVWH+8M Tartus‎
6.870833333,100.9708333,VXCC+88 Pak Bang,VXCC+88 Pak Bang
-6.020833333,106.6208333,XJHC+M8 Kohod,XJHC+M8 Kohod
8.095833333,-76.92916667,33WC+88 Unguía,33WC+88 Unguía
-2.820833333,-44.17916667,5RHC+M8 Rosário - State of Maranhão,5RHC+M8 Rosário - State of Maranhão
-7.654166667,108.8541667,8VW3+8M Panikel,8VW3+8M Panikel
46.8125,-71.19583333,RR63+XM Québec,RR63+XM Québec
-24.1875,-46.7875,R667+X2 Itanhaém - Santa Júlia,R667+X2 Itanhaém - Santa Júlia
4.029166667,98.4375,2CHP+MX Kwala Gebang,2CHP+MX Kwala Gebang
-7.0875,-34.8875,W467+X2 Nossa Senhora do Livramento,W467+X2 Nossa Senhora do Livramento
23.94583333,117.3791667,China,China
37.4375,121.5541667,CHP3+MFF,CHP3+MFF
7.279166667,81.8625,7VH7+M2 Palamunai,7VH7+M2 Palamunai
-8.6125,114.1041667,94Q3+2M Pesanggaran,94Q3+2M Pesanggaran
-34.55416667,-58.4125,CHWQ+82 Buenos Aires,CHWQ+82 Buenos Aires
10.54583333,123.7125,GPW6+8X Asturias,GPW6+8X Asturias
-23.0125,-43.32083333,240 - Windsor Barra - Barra da Tijuca,240 - Windsor Barra - Barra da Tijuca
28.3875,121.1791667,95QH+2M Yueqing,95QH+2M Yueqing
-1.004166667,8.920833333,XWWC+88 Ozori,XWWC+88 Ozori
-6.3875,38.85416667,JV63+XM Mkadini,JV63+XM Mkadini
41.57916667,32.0625,H3H6+MX Sazköy/Çaycuma/Zonguldak,H3H6+MX Sazköy/Çaycuma/Zonguldak
-9.120833333,146.9208333,VWHC+M8 Manumanu,VWHC+M8 Manumanu
-6.7375,110.5791667,7H7H+2M Berahan Wetan,7H7H+2M Berahan Wetan
24.6125,120.7708333,JQ6C+X8 Taiwan,JQ6C+X8 Taiwan
-26.9125,-48.64583333,39Q3+2M Itajaí - State of Santa Catarina,39Q3+2M Itajaí - State of Santa Catarina
4.520833333,6.245833333,G6CW+88 Galubakiri,G6CW+88 Galubakiri
35.22916667,-3.195833333,6RH3+MM Bouyafar,6RH3+MM Bouyafar
6.095833333,125.2291667,36WH+8M General Santos City,36WH+8M General Santos City
-3.604166667,114.5958333,9HWW+88 Padang Luas,9HWW+88 Padang Luas
38.85416667,-77.02916667,VX3C+M8 Washington,VX3C+M8 Washington
6.245833333,-57.52916667,6FWC+88 New Amsterdam,6FWC+88 New Amsterdam
33.19583333,120.7791667,5QWH+8M Wanggang Town,5QWH+8M Wanggang Town
-31.32083333,29.97083333,MXHC+M8 Ndengane,MXHC+M8 Ndengane
11.49583333,79.77083333,FQWC+88 Parangipettai,FQWC+88 Parangipettai
18.34583333,84.12916667,84WH+8M Gangivalasa,84WH+8M Gangivalasa
4.579166667,113.9875,Jeti Kuala Baram,Jeti Kuala Baram
32.75416667,120.8541667,QV33+MM Jianggangzhen,QV33+MM Jianggangzhen
3.929166667,9.7125,WPH7+M2 Douala,WPH7+M2 Douala
18.82916667,105.7125,RPH6+MX Cửa Lò,RPH6+MX Cửa Lò
21.3625,109.9125,9W67+X2 Beitan Town,9W67+X2 Beitan Town
-19.8875,34.74583333,4P6W+X8 Beira,4P6W+X8 Beira
41.02916667,19.44583333,2CHW+M8 Rreth-Greth,2CHW+M8 Rreth-Greth
-17.65416667,37.37083333,89WC+88 Tomodo,89WC+88 Tomodo
-3.329166667,-44.8125,M5CP+8X Bonfim do Arari,M5CP+8X Bonfim do Arari
22.8625,116.0791667,V36H+XM Jiaxi,V36H+XM Jiaxi
35.59583333,-5.9875,H2W6+8X El Khaoucha,H2W6+8X El Khaoucha
14.47916667,109.1041667,F4H3+C65,F4H3+C65
20.99583333,106.7291667,XPWH+8M Thủy Nguyên,XPWH+8M Thủy Nguyên
9.079166667,80.07083333,33HC+M8 Iluppaikkadavai,33HC+M8 Iluppaikkadavai
22.2875,88.07916667,73PH+XM Alipur,73PH+XM Alipur
21.6625,91.97083333,MX6C+X8 Safiapur,MX6C+X8 Safiapur
18.22916667,-72.54583333,6FH3+MM Jacmel,6FH3+MM Jacmel
35.45416667,35.87916667,FV3H+MM Al-Sanobar,FV3H+MM Al-Sanobar
3.2625,9.904166667,7W73+2M Ehyengué,7W73+2M Ehyengué
5.529166667,-0.220833333,GQHH+MM Accra,GQHH+MM Accra
-34.40416667,20.84583333,HRWW+88 Witsand,HRWW+88 Witsand
12.92083333,-87.34583333,WMC3+8M Punta Mangle Alto,WMC3+8M Punta Mangle Alto
14.97916667,-17.07916667,XWHC+M8 Camp Peuls,XWHC+M8 Camp Peuls
36.80416667,10.29583333,R73W+M8 La Goulette,R73W+M8 La Goulette
13.8125,109.2291667,R66H+XM Thành phố Qui Nhơn,R66H+XM Thành phố Qui Nhơn
2.104166667,102.4791667,4F3H+MM Sungai Rambai,4F3H+MM Sungai Rambai
12.5375,102.0875,G3PQ+G4M,G3PQ+G4M
13.45416667,-89.22083333,FQ3H+MM Santa Cruz,FQ3H+MM Santa Cruz
40.02916667,124.3791667,29HH+MM Sinuiju,29HH+MM Sinuiju
-8.6625,115.2625,87P6+MJ,87P6+MJ
16.57916667,107.5541667,HHH3+MM Quảng Điền District,HHH3+MM Quảng Điền District
-6.9125,-79.89583333,34Q3+2M Ciudad Eten,34Q3+2M Ciudad Eten
21.95416667,112.8375,XR3P+MX Guanghai,XR3P+MX Guanghai
13.3625,109.2458333,966W+X8 Tuy An District,966W+X8 Tuy An District
-10.2375,13.4875,QF7Q+22 Calamba,QF7Q+22 Calamba
29.12916667,32.65416667,7GXJ4MH3+MM,7GXJ4MH3+MM
18.2125,120.5375,6G7Q+22 Laoag City,6G7Q+22 Laoag City
10.42916667,51.02083333,7H2HC2HC+M8,7H2HC2HC+M8
25.17916667,121.6875,207,207
56.97083333,23.85416667,XVC3+8M Jūrmala,XVC3+8M Jūrmala
22.22083333,113.4041667,6CC3+8M Zhongshan,6CC3+8M Zhongshan
31.7625,120.9208333,QW7C+28 Changshu,QW7C+28 Changshu
13.5125,100.5541667,GH73+2M Laem Fa Pha,GH73+2M Laem Fa Pha
11.87916667,79.8125,VRH6+MX Pooranankuppam,VRH6+MX Pooranankuppam
6.820833333,81.82083333,RRCC+88 Arugam Bay,RRCC+88 Arugam Bay
8.270833333,124.2625,77C6+GX4,77C6+GX4
-7.504166667,107.4291667,FCWH+5QR,FCWH+5QR
-6.545833333,108.5458333,FG3W+M8 Bungko Lor,FG3W+M8 Bungko Lor
-11.6125,-77.24583333,9QQ3+2M Chacra y Mar,9QQ3+2M Chacra y Mar
11.04583333,-74.8875,24W6+8X Puerto Colombia,24W6+8X Puerto Colombia
34.44583333,119.9375,CWWP+8X Chenjiagang,CWWP+8X Chenjiagang
17.72083333,106.4291667,PCCH+8M Bố Trạch District,PCCH+8M Bố Trạch District
23.29583333,120.1125,74W7+82 Taiwan,74W7+82 Taiwan
40.12916667,128.4125,4CH7+M2 Sinchang,4CH7+M2 Sinchang
20.94583333,106.7625,WQW6+8X Thủy Nguyên,WQW6+8X Thủy Nguyên
12.4125,99.9875,CX7Q+C23,CX7Q+C23
2.204166667,102.2375,a1,a1
-12.15416667,-77.02916667,RXWC+88 Barranco,RXWC+88 Barranco
21.07083333,110.2125,36C6+8X Mazhang District,36C6+8X Mazhang District
-12.92916667,12.9625,3XC7+82 Dombe Grande,3XC7+82 Dombe Grande
40.7375,-74.0125,PXQP+2X New York,PXQP+2X New York
11.0625,-68.3375,3M67+X2 Boca de Tocuyo,3M67+X2 Boca de Tocuyo
-6.845833333,109.1458333,543W+M8 Mintaragen,543W+M8 Mintaragen
18.42083333,-70.0125,CXCQ+Q6P,CXCQ+Q6P
24.00416667,120.3541667,2933+MM Taiwan,2933+MM Taiwan
31.4875,121.3625,F9P7+X2 Baoshan,F9P7+X2 Baoshan
19.22083333,105.7375,6PCQ+43J,6PCQ+43J
14.4125,120.8458333,CR6W+XPR,CR6W+XPR
35.85416667,120.0375,V23Q+M2 Yinzhu Neighborhood,V23Q+M2 Yinzhu Neighborhood
7.8375,123.5125,RGQ6+2X Labangan,RGQ6+2X Labangan
7.3125,125.7375,8P6P+WQ,8P6P+WQ
15.0875,108.8958333,3VQW+28 Mộ Đức District,3VQW+28 Mộ Đức District
6.6875,125.3791667,M9PH+Q66,M9PH+Q66
13.7375,121.0541667,P3P3+XM Batangas,P3P3+XM Batangas
-4.995833333,11.9875,2X3Q+M2 Fouta,2X3Q+M2 Fouta
7.2625,125.6791667,7M7H+2M Panabo,7M7H+2M Panabo
-29.12083333,31.6125,VJH7+M2 Amatikulu,VJH7+M2 Amatikulu
1.570833333,110.4125,HCC7+82 Kuching,HCC7+82 Kuching
46.4375,35.44583333,CCPW+X8 Kyrylivka,CCPW+X8 Kyrylivka
-3.2125,113.3208333,Q8PC+X8 Pegatan Hilir,Q8PC+X8 Pegatan Hilir
37.82916667,126.6708333,RMHC+M8 Paju-si,RMHC+M8 Paju-si
12.0875,-83.7375,37Q7+22 Bluefields,37Q7+22 Bluefields
-3.204166667,-79.97083333,Q2WH+8M Machala,Q2WH+8M Machala
24.77916667,67.4375,QCHP+MX Bin Qasim Town,QCHP+MX Bin Qasim Town
-7.7375,113.2041667,7673+2M Sukabumi,7673+2M Sukabumi
31.72916667,121.0541667,P3H3+C7C,P3H3+C7C
9.004166667,80.90416667,2W33+MM Welioya,2W33+MM Welioya
-7.5625,107.5875,CHQP+7X2,CHQP+7X2
16.99583333,107.1041667,X4W3+8M Gio Linh District,X4W3+8M Gio Linh District
11.17916667,108.5708333,236 Đường Phạm Ngọc Thạch,236 Đường Phạm Ngọc Thạch
-24.6375,-47.3875,9J67+X2 Icapara,9J67+X2 Icapara
-1.420833333,119.2958333,H7HW+M8 Bambakoro,H7HW+M8 Bambakoro
10.6625,107.7791667,112 Võ Thị Sáu,112 Võ Thị Sáu
35.54583333,139.7458333,3-chōme-19-6 Haneda,3-chōme-19-6 Haneda
-4.479166667,11.7125,GPC7+82 Madingo-Kayes,GPC7+82 Madingo-Kayes
22.4625,113.0791667,F37H+2M Xinhui District,F37H+2M Xinhui District
-8.929166667,13.1625,35C7+64R,35C7+64R
32.5375,120.9958333,GXPW+X8 Yangkouzhen,GXPW+X8 Yangkouzhen
25.17916667,61.5125,5GH6+MX Shahrak Maskuni-ye Gavater,5GH6+MX Shahrak Maskuni-ye Gavater
-6.8625,109.3458333,48QW+28 Kedungkelor,48QW+28 Kedungkelor
21.45416667,91.97083333,FX3C+M8 Cox's Bazar,FX3C+M8 Cox's Bazar
17.1125,97.14583333,446W+X8 Taunggyi,446W+X8 Taunggyi
4.0875,-77.42916667,67P43HQC+28,67P43HQC+28
38.6375,117.5708333,JHPC+X8 Gulin,JHPC+X8 Gulin
41.22083333,29.2125,66C7+82 Beykoz/İstanbul,66C7+82 Beykoz/İstanbul
-4.670833333,39.22083333,86HC+M8 Vanga,86HC+M8 Vanga
14.84583333,108.9875,RXWQ+82 Đức Phổ District,RXWQ+82 Đức Phổ District
5.3625,-0.5875,9C66+XX Winneba,9C66+XX Winneba
5.5625,95.29583333,H77W+5G2,H77W+5G2
-6.845833333,109.6291667,5J3H+JMF,5J3H+JMF
4.745833333,-6.620833333,P9WH+6FQ,P9WH+6FQ
22.60416667,120.2708333,J73C+M8 Taiwan,J73C+M8 Taiwan
14.77916667,121.6541667,QMH3+MM General Nakar,QMH3+MM General Nakar
23.3625,116.5625,9H66+XX Chaoyang,9H66+XX Chaoyang
22.9375,113.6125,WJP7+X2 Panyu District,WJP7+X2 Panyu District
-8.079166667,-34.8875,W4C7+82 São José,W4C7+82 São José
-32.77083333,18.1375,64HP+MX Velddrif,64HP+MX Velddrif
3.3875,99.4125,9CQ7+22 Medang,9CQ7+22 Medang
-33.22083333,27.5875,QHHQ+M2 Kayser`s Beach,QHHQ+M2 Kayser`s Beach
15.49583333,80.20416667,F6W3+8M Motumala,F6W3+8M Motumala
16.17916667,95.27916667,57HH+MM Poe Laung Chaung Dwin,57HH+MM Poe Laung Chaung Dwin
5.2875,100.4208333,7CPC+X8 Simpang Ampat,7CPC+X8 Simpang Ampat
-3.695833333,-38.60416667,Rua São José,Rua São José
-34.77916667,-56.3875,6JC7+82 Ciudad del Plata,6JC7+82 Ciudad del Plata
15.99583333,-97.79583333,X6W3+8M El Azufre,X6W3+8M El Azufre
16.27083333,95.3875,79CP+8X Bogale,79CP+8X Bogale
32.05416667,121.6625,3M37+F9P,3M37+F9P
-1.4875,-48.49583333,GG73+2M Outeiro,GG73+2M Outeiro
30.6875,121.2625,M7P6+XX Pinghu,M7P6+XX Pinghu
-7.7375,113.1458333,746W+V8Q,746W+V8Q
1.029166667,98.9375,2WHP+MX Pasar II Singkuang,2WHP+MX Pasar II Singkuang
13.02916667,-87.27916667,2PHC+M8 Albania,2PHC+M8 Albania
10.2375,123.8375,6RPQ+R5R,6RPQ+R5R
-16.4125,39.8125,HRQ6+2X Aúbe,HRQ6+2X Aúbe
31.82083333,121.4541667,RFC3+8M Haimen,RFC3+8M Haimen
39.57083333,119.2791667,H7CH+8M Tuanlinxiang,H7CH+8M Tuanlinxiang
34.64583333,35.97083333,JXWC+88 Bani-Naem,JXWC+88 Bani-Naem
-2.420833333,105.5541667,6P97HHH3+MM,6P97HHH3+MM
4.779166667,7.070833333,Q3HC+M8 Abam Ama,Q3HC+M8 Abam Ama
29.12083333,121.4708333,4FCC+FR9,4FCC+FR9
4.770833333,7.0625,Q3C6+8X Abuloma,Q3C6+8X Abuloma
39.77083333,119.4041667,QCC3+6VH,QCC3+6VH
24.79583333,118.6625,QMW6+8X Jinjiang,QMW6+8X Jinjiang
8.470833333,100.0625,F3C6+8X Tha Rai,F3C6+8X Tha Rai
-3.329166667,114.5541667,MHC3+8M Tinggiran II,MHC3+8M Tinggiran II
34.87083333,-6.2875,VPC7+82 Moulay Bousselham,VPC7+82 Moulay Bousselham
41.4125,129.7375,CP6P+XX Orang,CP6P+XX Orang
20.47083333,-97.02916667,FXCC+88 Rancho Lagartos,FXCC+88 Rancho Lagartos
31.85416667,121.3708333,V93C+M8 Haimen,V93C+M8 Haimen
24.6625,120.8458333,MR6W+X8 Taiwan,MR6W+X8 Taiwan
13.8125,43.2375,R66Q+X2 Al Khawkhah,R66Q+X2 Al Khawkhah
19.75416667,109.2958333,Q73W+M8 Xinzhouzhen,Q73W+M8 Xinzhouzhen
5.2375,96.87916667,6VPH+XM Blang Keude,6VPH+XM Blang Keude
-3.8625,122.5041667,4GQ3+298,4GQ3+298
-6.770833333,108.6375,6JHP+MX Pengarengan,6JHP+MX Pengarengan
36.84583333,54.04583333,R2WW+88 Gharasu,R2WW+88 Gharasu
-33.80416667,25.6875,5MWP+8X Gqeberha,5MWP+8X Gqeberha
-0.8125,-80.52083333,5FPH+XM San Jacinto,5FPH+XM San Jacinto
16.22083333,42.8125,6RC6+8X Al Kharamilah,6RC6+8X Al Kharamilah
-8.729166667,125.0958333,73CW+88 Gulumanu,73CW+88 Gulumanu
18.5625,-72.59583333,HC63+XM Camp Crabe,HC63+XM Camp Crabe
25.2875,63.47916667,7FPH+XM Pasni,7FPH+XM Pasni
36.77083333,3.4125,QC9M+GF,QC9M+GF
36.1625,120.3625,5967+X2 Licang District,5967+X2 Licang District
31.87083333,121.2458333,China,China
39.15416667,118.5375,5G3Q+M2 Caofeidian District,5G3Q+M2 Caofeidian District
-7.204166667,12.85416667,QVW3+8M N'zeto,QVW3+8M N'zeto
19.49583333,108.9458333,FWWW+88 Changjiang Li Autonomous County,FWWW+88 Changjiang Li Autonomous County
29.7625,-95.0875,QW77+22 Lakeside Park Estates,QW77+22 Lakeside Park Estates
14.4875,-92.15416667,7669FRPW+X8,7669FRPW+X8
10.92916667,108.1375,W4HP+MX Phan Thiet,W4HP+MX Phan Thiet
-31.77916667,-52.25416667,6PCW+88 Pelotas,6PCW+88 Pelotas
23.4625,121.5041667,FG73+2M Taiwan,FG73+2M Taiwan
36.87916667,6.929166667,VWHJ+J6J,VWHJ+J6J
6.754166667,81.8125,QR37+VCM,QR37+VCM
13.0125,80.27083333,2769+WWJ,2769+WWJ
10.52916667,76.02916667,G2HH+GJ9,G2HH+GJ9
37.02083333,10.1875,25CP+8X Raoued,25CP+8X Raoued
1.429166667,98.7875,CQHQ+M2 Lumut Maju,CQHQ+M2 Lumut Maju
25.24583333,118.8791667,6VWH+8M Xianyou County,6VWH+8M Xianyou County
2.895833333,103.4375,VCWP+8X Kuala Rompin,VCWP+8X Kuala Rompin
41.3125,-72.35416667,15 Ferry Rd,15 Ferry Rd
19.50416667,72.77916667,GQ3H+MM Vehaloli,GQ3H+MM Vehaloli
40.72083333,-74.12083333,PVCH+8M Kearny,PVCH+8M Kearny
-2.470833333,-80.0875,GWH7+M2 La Seca,GWH7+M2 La Seca
12.67916667,44.42916667,MCHH+MM Qawah,MCHH+MM Qawah
3.8625,9.7125,VP67+X2 Kombo Dibo,VP67+X2 Kombo Dibo
18.40416667,105.9125,CW36+WXJ,CW36+WXJ
32.10416667,34.77083333,4Q3C+M8 Tel Aviv-Yafo,4Q3C+M8 Tel Aviv-Yafo
23.60416667,116.9458333,JW3W+M8 Jingzhouzhen,JW3W+M8 Jingzhouzhen
-8.829166667,-35.1375,5VC7+82 Barreiros,5VC7+82 Barreiros
16.3625,94.7125,9P66+XX Thu Myaung,9P66+XX Thu Myaung
5.1375,5.454166667,4FQ3+2M Aggi,4FQ3+2M Aggi
18.15416667,-94.42083333,Av 18 de Marzo 320,Av 18 de Marzo 320
8.929166667,76.5375,WGHQ+M2 Kollam,WGHQ+M2 Kollam
3.770833333,98.67083333,QMC9+GWG,QMC9+GWG
16.4125,42.7625,CQ66+XX Muwassam Saudi Arabia,CQ66+XX Muwassam Saudi Arabia
-7.720833333,109.3791667,79HH+MM Jetis,79HH+MM Jetis
22.50416667,90.19583333,G53W+M8 Palot,G53W+M8 Palot
-6.795833333,110.5625,6H36+MX Betahwalang,6H36+MX Betahwalang
39.25416667,119.0875,733P+MX Wangtan,733P+MX Wangtan
14.1375,109.1708333,45QC+28 Phù Cát District,45QC+28 Phù Cát District
36.82083333,50.87916667,Mazandaran Province,Mazandaran Province
12.6375,44.30416667,J8Q3+2M Am Juhar,J8Q3+2M Am Juhar
46.34583333,30.64583333,8JWW+88 Burlacha Balka,8JWW+88 Burlacha Balka
18.62916667,-72.34583333,JMH3+MM Port-au-Prince,JMH3+MM Port-au-Prince
34.65416667,119.4791667,MF3H+MM Lianyun District,MF3H+MM Lianyun District
16.12083333,108.1208333,44CC+88 Liên Chiểu,44CC+88 Liên Chiểu
13.07083333,80.2875,37CP+2X3,37CP+2X3
15.84583333,80.52083333,RGWC+88 Adivi,RGWC+88 Adivi
-6.6625,108.5541667,8HQ3+2M Jatimerta,8HQ3+2M Jatimerta
3.679166667,98.90416667,MWH3+XC7,MWH3+XC7
16.0625,120.3208333,386C+X8 Dagupan,386C+X8 Dagupan
3.704166667,98.84583333,PR3W+M8 Sei Tuan,PR3W+M8 Sei Tuan
7.754166667,81.5875,QH3P+MX Pulaiyaveli,QH3P+MX Pulaiyaveli
-17.17083333,-71.8375,R5H7+M2 La Curva,R5H7+M2 La Curva
20.69583333,109.7875,MQWQ+82 Qishuizhen,MQWQ+82 Qishuizhen
9.520833333,76.37916667,G9CH+8M Mullakkal,G9CH+8M Mullakkal
6.104166667,125.1708333,453C+M8 General Santos City,453C+M8 General Santos City
-6.8375,109.5958333,5H6W+X8 Blacanan,5H6W+X8 Blacanan
13.4875,100.8041667,FRP3+XM Khlong Dan,FRP3+XM Khlong Dan
45.57916667,29.7125,HPH7+M2 Lyman,HPH7+M2 Lyman
-3.770833333,-38.4375,R. Pedro Antonio Cavalcante,R. Pedro Antonio Cavalcante
34.6875,35.95416667,MXP3+XM Al-Hamidiyah,MXP3+XM Al-Hamidiyah
15.3875,42.77916667,9QQH+2M Ibn Abbas,9QQH+2M Ibn Abbas
36.5875,120.8041667,HRQ3+2M Jinkouzhen,HRQ3+2M Jinkouzhen
0.5125,123.0625,G367+G5Q,G367+G5Q
-6.8375,39.29583333,576W+X8 Dar es Salaam,576W+X8 Dar es Salaam
8.520833333,124.6041667,GJC3+8M Opol,GJC3+8M Opol
6.079166667,1.120833333,34HC+M8 Hedzranawo,34HC+M8 Hedzranawo
21.4625,87.05416667,F373+2M Parikhi,F373+2M Parikhi
24.7875,67.3125,Q8P6+XX Bin Qasim Town,Q8P6+XX Bin Qasim Town
23.27083333,116.7208333,7PCC+88 Haojiang District,7PCC+88 Haojiang District
9.645833333,76.42083333,JCWC+G34,JCWC+G34
53.32916667,-2.7625,86HQ+M2 Runcorn,86HQ+M2 Runcorn
5.670833333,100.3791667,M9CH+8M Merbok,M9CH+8M Merbok
10.59583333,44.07083333,H3WC+88 Lughaya,H3WC+88 Lughaya
40.67083333,19.32916667,M8CH+8M Darëzezë e Re,M8CH+8M Darëzezë e Re
16.3875,120.3291667,98QH+2M Aringay,98QH+2M Aringay
46.25416667,-123.4625,7G3Q+M2 Clifton,7G3Q+M2 Clifton
7.5375,-12.32916667,GMPC+X8 Baha,GMPC+X8 Baha
18.87916667,110.5125,VGH6+MX Wanning,VGH6+MX Wanning
40.75416667,120.9291667,QW3H+MM Longgang District,QW3H+MM Longgang District
6.220833333,116.1875,65CP+8X Tuaran,65CP+8X Tuaran
-2.595833333,-79.7125,C73Q+M2 Puerto Santa Fe,C73Q+M2 Puerto Santa Fe
21.1875,109.7291667,5PPH+XM Leminzhen,5PPH+XM Leminzhen
46.2625,38.2875,776P+XX Yasenskaya Pereprava,776P+XX Yasenskaya Pereprava
35.44583333,-1.2375,CQW6+8X Ouled Boudjemaa,CQW6+8X Ouled Boudjemaa
16.34583333,96.07916667,83WH+8M Ale-Ywa,83WH+8M Ale-Ywa
5.095833333,-5.4875,3GW6+8X Port-Gauthie,3GW6+8X Port-Gauthie
7.3625,125.8375,9R6P+XX Tagum,9R6P+XX Tagum
33.64583333,-7.4875,JGW7+45,JGW7+45
4.654166667,7.170833333,M53C+M8 Aworkiri,M53C+M8 Aworkiri
53.70416667,-0.720833333,P73H+MM Goole,P73H+MM Goole
34.7125,135.4875,7 Chome-2 Nakatsu,7 Chome-2 Nakatsu
33.90416667,35.54583333,WG3W+M8 Beirut,WG3W+M8 Beirut
18.72916667,-95.8625,P4HQ+M2 Los Cántaros,P4HQ+M2 Los Cántaros
24.5875,118.0708333,H3QC+28 Jimei District,H3QC+28 Jimei District
18.27083333,-71.10416667,7VCW+88 Barahona,7VCW+88 Barahona
12.60416667,101.9541667,JX33+MM Takat Ngao,JX33+MM Takat Ngao
12.45416667,109.1791667,F53H+MM Ninh Hòa,F53H+MM Ninh Hòa
9.0125,80.0375,227Q+22 Vidataltivu,227Q+22 Vidataltivu
10.6875,122.5791667,MHQH+2X2,MHQH+2X2
14.20416667,122.9208333,6W3C+M8 Vinzons,6W3C+M8 Vinzons
31.47083333,121.3958333,F9CW+88 Baoshan,F9CW+88 Baoshan
31.97916667,120.4541667,XFH3+MM Zhangjiagang,XFH3+MM Zhangjiagang
45.3375,37.3875,89QP+2X Temryukskiy,89QP+2X Temryukskiy
37.12083333,119.7291667,4PCH+8M Tushanzhen,4PCH+8M Tushanzhen
-8.245833333,-34.9375,Q336+MX Cabo de Santo Agostinho,Q336+MX Cabo de Santo Agostinho
-6.904166667,110.0458333,32WW+88 Gempolsewu,32WW+88 Gempolsewu
14.4875,-17.0875,FWP6+XX Somone,FWP6+XX Somone
39.17083333,118.6125,5JC6+8X Caofeidian District,5JC6+8X Caofeidian District
12.92083333,123.5791667,WHCH+RM9,WHCH+RM9
12.2875,-16.1375,7VP7+X2 Cacheu,7VP7+X2 Cacheu
5.6125,-0.0375,JX67+X2 Sakumono,JX67+X2 Sakumono
36.79583333,-6.354166667,QJWW+88 Sanlúcar de Barrameda,QJWW+88 Sanlúcar de Barrameda
18.3875,109.7625,9QQ6+2X Haitang District,9QQ6+2X Haitang District
6.5875,-11.07916667,HWQC+28 Bomboja,HWQC+28 Bomboja
23.92083333,121.6041667,WJC3+8M Taiwan,WJC3+8M Taiwan
16.9125,82.25416667,W763+XM Kakinada,W763+XM Kakinada
40.15416667,120.2708333,573C+M8 Wanghuxiang,573C+M8 Wanghuxiang
-30.6125,30.55416667,9HQ3+2M Hibberdene,9HQ3+2M Hibberdene
25.87916667,119.5791667,VHHH+MM Changle District,VHHH+MM Changle District
-32.44583333,28.67083333,HM3C+M8 Thubeni,HM3C+M8 Thubeni
40.1125,121.9625,4X76+2X Guizhou Town,4X76+2X Guizhou Town
35.25416667,119.4041667,7C33+MM Taoluozhen,7C33+MM Taoluozhen
28.57083333,121.5375,HGCP+8X Jiaojiang District,HGCP+8X Jiaojiang District
40.42916667,29.15416667,Dr. Ziya Kaya,Dr. Ziya Kaya
-34.52916667,-58.44583333,FHC3+8M Buenos Aires,FHC3+8M Buenos Aires
19.72083333,109.2958333,P7CW+G28,P7CW+G28
-8.770833333,13.3625,69H7+M2 Luanda,69H7+M2 Luanda
3.720833333,98.7875,PQCQ+82 Pematang Lalang,PQCQ+82 Pematang Lalang
6.254166667,100.1958333,753W+M8 Kuala Sanglang,753W+M8 Kuala Sanglang
-17.92916667,36.90416667,3WC3+8M Inhangulue,3WC3+8M Inhangulue
43.0375,17.4625,2FP7+X2 Komin,2FP7+X2 Komin
8.9125,-13.14583333,WV63+XM Kychom,WV63+XM Kychom
54.6875,20.37083333,M9PC+X8 Baltiyskiy Rayon,M9PC+X8 Baltiyskiy Rayon
51.72083333,-2.4875,PGC6+8X Berkeley,PGC6+8X Berkeley
38.87916667,121.5875,VHHP+MX Shahekou District,VHHP+MX Shahekou District
32.55416667,-117.1291667,HV3C+M8 Imperial Beach,HV3C+M8 Imperial Beach
-6.954166667,110.4625,2FW7+92C,2FW7+92C
23.22916667,120.1125,64H7+M2 Taiwan,64H7+M2 Taiwan
-3.520833333,-80.5125,FFHP+MX Tumbes,FFHP+MX Tumbes
36.70416667,28.74583333,PP3W+M8 Dalaman/Muğla,PP3W+M8 Dalaman/Muğla
26.97916667,120.1791667,X5HH+MM Yachengzhen,X5HH+MM Yachengzhen
13.0375,45.27916667,27PH+XM Al Kawd,27PH+XM Al Kawd
18.74583333,110.4541667,PFW3+8M Wanning,PFW3+8M Wanning
36.27916667,10.4875,7FHQ+M2 Salloum,7FHQ+M2 Salloum
21.5125,107.9125,GW77+22 Móng Cái,GW77+22 Móng Cái
-7.220833333,113.2458333,Q6HW+M8 Polagan,Q6HW+M8 Polagan
6.0875,80.94583333,3WQW+28 Kalametiya,3WQW+28 Kalametiya
20.69583333,106.6791667,MMWH+8M Tiên Lãng,MMWH+8M Tiên Lãng
44.99583333,-0.554166667,XCWW+88 Ambès,XCWW+88 Ambès
-30.4875,30.6375,GJ7P+2X Elysium,GJ7P+2X Elysium
6.854166667,101.0625,V336+MX Pak Bang,V336+MX Pak Bang
10.50416667,44.20416667,7H26G633+MM,7H26G633+MM
3.470833333,99.27916667,F7CH+8M Gelam Sei Serimah,F7CH+8M Gelam Sei Serimah
16.52916667,42.72916667,GPHH+MM Al Sehi Saudi Arabia,GPHH+MM Al Sehi Saudi Arabia
16.80416667,96.27083333,R73C+M8 Yangon,R73C+M8 Yangon
21.67916667,108.3458333,M8HW+M8 Yuzhouping Residential District,M8HW+M8 Yuzhouping Residential District
36.8125,5.8625,RV67+X2 Emir Abdelkader,RV67+X2 Emir Abdelkader
35.77083333,10.7625,QQ97+XC2,QQ97+XC2
22.72916667,90.4375,PCHP+MX Charmonai,PCHP+MX Charmonai
-22.69583333,-43.0375,8X37+M2 Guapimirim,8X37+M2 Guapimirim
-6.3125,108.0541667,M3P3+XM Eretan Kulon,M3P3+XM Eretan Kulon
-32.9125,-71.5125,3FPP+XX Quintero,3FPP+XX Quintero
6.8875,101.3458333,V8QW+28 Bang Pu,V8QW+28 Bang Pu
10.3125,-60.99583333,8263+XM Ortoire,8263+XM Ortoire
37.7125,121.0208333,P27C+28 Chaoshuizhen,P27C+28 Chaoshuizhen
46.50416667,30.72916667,Хлебная гавань 5,Хлебная гавань 5
32.82916667,12.97916667,RXHH+MM Janzur,RXHH+MM Janzur
19.9375,-72.85416667,W4PW+X8 Port-de-Paix,W4PW+X8 Port-de-Paix
10.52083333,99.2375,G6CQ+82 Na Cha-ang,G6CQ+82 Na Cha-ang
21.07916667,110.2791667,37HH+MM Mazhang District,37HH+MM Mazhang District
13.49583333,100.7541667,FQW3+8M Bang Pu,FQW3+8M Bang Pu
-2.9625,113.0375,22PQ+X2 Bapinang Hilir Laut,22PQ+X2 Bapinang Hilir Laut
6.854166667,81.82916667,VR3H+MM Arugam Bay,VR3H+MM Arugam Bay
40.4625,129.0041667,F273+2M Tanchŏn,F273+2M Tanchŏn
4.779166667,8.545833333,QGHW+M8 Archibong,QGHW+M8 Archibong
10.0625,-75.57083333,3C6H+XM San Onofre,3C6H+XM San Onofre
-7.079166667,-79.72083333,W7CH+8M El Palmo,W7CH+8M El Palmo
6.4375,101.8375,CRPP+XX Kaluwo Nuea,CRPP+XX Kaluwo Nuea
8.7625,105.2125,Q676+2X Ngọc Hiển District,Q676+2X Ngọc Hiển District
-18.17083333,177.5125,RGH6+MX Olosara,RGH6+MX Olosara
7.270833333,124.2125,76C6+8X Sultan Mastura,76C6+8X Sultan Mastura
36.95416667,10.2375,X63Q+M2 Raoued,X63Q+M2 Raoued
-9.6375,124.9791667,9X6H+XM Motaain,9X6H+XM Motaain
19.62083333,110.8708333,JVCC+88 Donggezhen,JVCC+88 Donggezhen
-29.65416667,31.12916667,84WH+8M La Mercy,84WH+8M La Mercy
-6.820833333,108.9291667,5WHH+MM Grinting,5WHH+MM Grinting
-2.279166667,-79.9625,P2CQ+82 Guayaquil,P2CQ+82 Guayaquil
39.7875,119.4208333,China,China
31.35416667,121.5041667,Lao Jun Gong Lu,Lao Jun Gong Lu
-3.5375,122.2625,F776+2X Tapunggaeya,F776+2X Tapunggaeya
40.9875,37.9375,XWQP+2X Altınordu/Ordu,XWQP+2X Altınordu/Ordu
-15.6875,-38.9375,8366+XX Ouricana,8366+XX Ouricana
37.8375,48.97083333,RXQC+28 Karganrud,RXQC+28 Karganrud
40.97916667,28.75416667,XQH3+MM Avcılar/İstanbul,XQH3+MM Avcılar/İstanbul
-8.570833333,115.4291667,CCHH+MM Tangkas,CCHH+MM Tangkas
23.35416667,116.6458333,9J3W+M8 Jinping District,9J3W+M8 Jinping District
6.379166667,100.1375,Dataran IMAB,Dataran IMAB
25.5625,58.22083333,H66C+X8 Karap,H66C+X8 Karap
-5.8125,-80.8625,54PQ+X2 Parachique,54PQ+X2 Parachique
15.87916667,80.6375,VJHQ+65Q,VJHQ+65Q
13.52083333,100.6458333,241/2 Udom Sap Alley,241/2 Udom Sap Alley
16.52916667,120.3125,G8H7+H5X,G8H7+H5X
31.77916667,120.8208333,QRH9+MQM,QRH9+MQM
5.754166667,115.9125,QW37+M2 Papar,QW37+M2 Papar
3.9125,98.65416667,WM63+XM Kwala Besar,WM63+XM Kwala Besar
-8.329166667,113.3375,M8CQ+W48,M8CQ+W48
31.52916667,31.34583333,G8HW+M8 Al Satamoni,G8HW+M8 Al Satamoni
1.404166667,110.6541667,CM33+MM Simunjan,CM33+MM Simunjan
31.55416667,31.0625,H336+MX Burullus,H336+MX Burullus
23.12916667,-82.42083333,4HHH+FP6,4HHH+FP6
39.89583333,124.2125,V6W6+8X Xinxing Residential District,V6W6+8X Xinxing Residential District
13.27083333,-88.8125,75CP+8X Las Mesas,75CP+8X Las Mesas
23.7125,120.1708333,P57C+28 Taiwan,P57C+28 Taiwan
16.65416667,107.4458333,MC3W+M8 Phong Điền District,MC3W+M8 Phong Điền District
-34.09583333,18.5125,WG36+MX Grassy Park,WG36+MX Grassy Park
35.4125,35.9125,CW66+XX Bustan Al Basha,CW66+XX Bustan Al Basha
11.97916667,-86.65416667,X8HW+M8 Salamina,X8HW+M8 Salamina
1.479166667,103.7125,FPH6+MX Johor Bahru,FPH6+MX Johor Bahru
-3.295833333,-44.79583333,P633+MM Bonfim do Arari,P633+MM Bonfim do Arari
36.55416667,1.695833333,HM3W+M8 Damous,HM3W+M8 Damous
14.45416667,120.9125,FW37+M2 Kawit,FW37+M2 Kawit
11.7375,122.3791667,P9PH+XM Kalibo,P9PH+XM Kalibo
16.60416667,96.29583333,J73W+M8 Bawkalut,J73W+M8 Bawkalut
5.695833333,5.354166667,M9W3+8M Jones Creek,M9W3+8M Jones Creek
37.10416667,122.4625,4F36+JRR,4F36+JRR
-7.745833333,108.4958333,7F3W+J67,7F3W+J67
12.70416667,101.7125,PP36+MX Pak Nam Krasae,PP36+MX Pak Nam Krasae
40.19583333,122.0625,53W6+8X Xiongyue,53W6+8X Xiongyue
20.9875,110.1708333,X5PC+X8 Mazhang District,X5PC+X8 Mazhang District
23.6375,120.1458333,J4QW+28 Taiwan,J4QW+28 Taiwan
10.30416667,-61.45416667,26 New City Ave,26 New City Ave
36.72916667,10.4625,PFH7+F6Q,PFH7+F6Q
30.7125,-9.854166667,P47W+28 Tamri,P47W+28 Tamri
-7.9375,-79.30416667,3M6W+X8 Balneario El Brujo,3M6W+X8 Balneario El Brujo
39.1625,118.8458333,8PFW5R6W+X8,8PFW5R6W+X8
8.920833333,81.0125,W2C6+8X Pulmoddai,W2C6+8X Pulmoddai
19.6125,110.8041667,JR63+XM Wenchengzhen,JR63+XM Wenchengzhen
41.6125,41.5875,JH7Q+22 Batumi,JH7Q+22 Batumi
37.02916667,122.1958333,25HW+M8 Wendeng District,25HW+M8 Wendeng District
23.39583333,116.5458333,9GWW+88 Chaoyang,9GWW+88 Chaoyang
-7.7375,113.4041667,7C73+2M Asembagus,7C73+2M Asembagus
16.5125,94.72083333,GP7C+28 Shangon,GP7C+28 Shangon
27.27916667,120.3041667,78H3+MM Qianqizhen,78H3+MM Qianqizhen
31.22916667,32.35416667,69H3+MM East of Al Tafreah,69H3+MM East of Al Tafreah
22.79583333,115.0541667,Q3W3+4H3 Shapu Brg,Q3W3+4H3 Shapu Brg
28.14583333,121.0208333,China,China
22.42916667,120.5208333,No. 130號,No. 130號
-7.754166667,109.0125,62W6+8X Tambakreja,62W6+8X Tambakreja
24.32083333,121.7708333,8QCC+88 Taiwan,8QCC+88 Taiwan
16.2375,94.8375,6RPP+XX Kyaut Mhaw,6RPP+XX Kyaut Mhaw
10.3375,123.9625,8XP6+JXG,8XP6+JXG
30.4125,49.25416667,C763+XM Bandar Imam Khomeini,C763+XM Bandar Imam Khomeini
14.2875,120.7125,7PP6+XX Ternate,7PP6+XX Ternate
13.97916667,98.2125,X6H6+MX Nyaungzin,X6H6+MX Nyaungzin
38.12916667,118.5958333,4HHW+M8 Diaokouxiang,4HHW+M8 Diaokouxiang
10.99583333,124.5625,XHW6+8X Ormoc,XHW6+8X Ormoc
-6.5875,108.5458333,CG6W+X8 Bungko,CG6W+X8 Bungko
27.25416667,120.2291667,763H+MM Diantouzhen,763H+MM Diantouzhen
-28.95416667,31.77916667,2QWH+8M Mtunzini,2QWH+8M Mtunzini
-3.845833333,114.6125,5J37+M2 Takisung,5J37+M2 Takisung
22.52083333,113.9541667,GXC3+CQR,GXC3+CQR
1.495833333,103.7958333,Jambatan Permas Jaya,Jambatan Permas Jaya
13.92083333,43.20416667,W6C3+8M Al Butays,W6C3+8M Al Butays
22.99583333,116.5208333,XGWC+88 Huilai County,XGWC+88 Huilai County
17.42916667,82.8875,CVHP+MX Kothapatnam,CVHP+MX Kothapatnam
35.12083333,-2.345833333,4MC3+8M Cherarba,4MC3+8M Cherarba
10.42083333,124.0041667,C2C3+8M Liloan,C2C3+8M Liloan
-6.8125,108.7125,5PP6+XX Kalipasung,5PP6+XX Kalipasung
39.8125,123.2791667,R76H+XM Qingduizhen,R76H+XM Qingduizhen
9.1625,125.5208333,5G6C+RP3,5G6C+RP3
22.27083333,91.8375,7RCP+PVW,7RCP+PVW
22.22083333,113.1291667,64CH+8M Xinhui District,64CH+8M Xinhui District
13.42083333,-89.1625,CRCQ+82 Amatecampo,CRCQ+82 Amatecampo
-3.479166667,119.2208333,G6CC+88 Buku,G6CC+88 Buku
7.979166667,79.82083333,XRHC+M8 Karamba,XRHC+M8 Karamba
22.3625,113.2958333,976W+X8 Zhongshan,976W+X8 Zhongshan
36.64583333,120.8708333,JVWC+88 Haiyang,JVWC+88 Haiyang
37.70416667,120.3958333,P93W+WFG,P93W+WFG
14.7625,120.8375,QR7P+2X Bulakan,QR7P+2X Bulakan
9.8375,79.10416667,R4Q3+2M Marungur,R4Q3+2M Marungur
-8.354166667,112.9541667,JXW3+8M Lebakharjo,JXW3+8M Lebakharjo
23.9125,68.1875,7JMCW56P+XX,7JMCW56P+XX
-3.395833333,112.5541667,Jl. Ais Nasution No.201A,Jl. Ais Nasution No.201A
-7.229166667,113.5041667,QGC3+8PC,QGC3+8PC
6.279166667,1.8375,7RHQ+M2 Grand Popo,7RHQ+M2 Grand Popo
-7.820833333,13.10416667,54H3+MM Ambriz,54H3+MM Ambriz
19.4125,-72.67916667,C86C+X8 Nan Piguel,C86C+X8 Nan Piguel
23.09583333,113.4541667,3FW3+CPC,3FW3+CPC
24.22916667,120.5041667,6GH3+MM Taiwan,6GH3+MM Taiwan
11.0125,75.8625,2V77+22 Pariyapuram,2V77+22 Pariyapuram
35.75416667,140.8041667,5558-1 Hasaki,5558-1 Hasaki
-31.10416667,30.17916667,V5WH+8M Mpahlane,V5WH+8M Mpahlane
14.49583333,120.9875,FXWQ+849,FXWQ+849
24.77916667,67.45416667,QFH3+MM Bin Qasim Town,QFH3+MM Bin Qasim Town
25.0875,118.8458333,3RQW+28 Huian,3RQW+28 Huian
-32.94583333,28.02916667,323H+MM East London,323H+MM East London
10.95416667,123.4041667,XC33+MM Sagay City,XC33+MM Sagay City
19.09583333,-96.09583333,3WW3+8M El Estero,3WW3+8M El Estero
12.1875,102.5708333,5HPC+X8 Nong Khan Song,5HPC+X8 Nong Khan Song
10.39583333,123.6458333,9JWW+88 Toledo City,9JWW+88 Toledo City
10.62083333,-61.02916667,JXCC+88 Sangre Grande Oropuche,JXCC+88 Sangre Grande Oropuche
10.82083333,79.85416667,RVC3+8M Nagapattinam,RVC3+8M Nagapattinam
30.77916667,-87.99583333,Q2H3+MM Mobile,Q2H3+MM Mobile
34.87083333,35.8875,VVCQ+C49,VVCQ+C49
1.595833333,103.2625,H7W6+8X Ayer Baloi,H7W6+8X Ayer Baloi
15.2875,42.80416667,7RP3+XM Ibn Abbas,7RP3+XM Ibn Abbas
31.44583333,30.82083333,CRWC+88 Sidi Salem,CRWC+88 Sidi Salem
13.52083333,100.2625,G7C6+7X7,G7C6+7X7
8.570833333,100.0041667,H2C3+8M Pak Phun,H2C3+8M Pak Phun
11.9375,75.35416667,W9P3+RX4 1st Dam Pappinisseri,W9P3+RX4 1st Dam Pappinisseri
-8.729166667,13.40416667,7CC3+8M Panguila,7CC3+8M Panguila
16.9125,120.4041667,WC63+XM Bangar,WC63+XM Bangar
-17.22083333,49.45416667,QFH3+MM Antakobola,QFH3+MM Antakobola
8.554166667,-12.9125,H33Q+M2 Matik,H33Q+M2 Matik
13.4375,-89.19583333,CRQ3+FG,CRQ3+FG
16.09583333,42.82916667,3RWH+8M Al Madasikah,3RWH+8M Al Madasikah
9.7875,-13.55416667,QCPW+X8 Dubreka,QCPW+X8 Dubreka
3.8125,-77.09583333,67M4RW63+XM,67M4RW63+XM
5.5375,118.7541667,6PQWGQP3+XM,6PQWGQP3+XM
19.92916667,110.6208333,WJHC+M8 Meilan District,WJHC+M8 Meilan District
5.895833333,117.5041667,6PQVVGW3+8M,6PQVVGW3+8M
14.92916667,42.9375,WWHP+MX Jabanah,WWHP+MX Jabanah
9.0125,126.2375,267Q+22 Bayabas,267Q+22 Bayabas
12.6625,101.2541667,261 Ariraj Soi 1,261 Ariraj Soi 1
20.74583333,72.8875,PVWP+8X Dholai Falia,PVWP+8X Dholai Falia
12.8375,74.85416667,RVQ3+2M Netravati River Area,RVQ3+2M Netravati River Area
30.27916667,120.6791667,7MHH+MM Yinongzhen,7MHH+MM Yinongzhen
-9.679166667,-35.7625,86CQ+82 Maceió,86CQ+82 Maceió
-7.545833333,-34.84583333,F533+MM Tejucopapo,F533+MM Tejucopapo
34.8875,119.1875,V5QQ+F25,V5QQ+F25
24.77916667,67.37083333,Q9HC+M8 Bin Qasim Town,Q9HC+M8 Bin Qasim Town
38.22083333,124.9125,6WC7+82 Ch'am-ch'on,6WC7+82 Ch'am-ch'on
-15.42916667,47.17916667,H5CH+8M Mahabo,H5CH+8M Mahabo
4.279166667,95.97083333,7XHC+P2M,7XHC+P2M
5.754166667,5.3375,Q83Q+M2 Harrison Point,Q83Q+M2 Harrison Point
-7.845833333,109.8958333,5V3V+RX3,5V3V+RX3
16.6875,-99.60416667,M9PW+X8 San José Guatemala,M9PW+X8 San José Guatemala
1.5125,103.3791667,Malaysia,Malaysia
10.3875,44.52083333,9GQC+28 Bulo Har,9GQC+28 Bulo Har
-0.854166667,42.0625,6HF443W6+8X,6HF443W6+8X
1.545833333,110.4708333,GFWC+88 Kuching,GFWC+88 Kuching
7.7125,122.8041667,PR73+2M Siay,PR73+2M Siay
22.2125,113.3041667,China,China
14.07083333,80.1375,34CP+JVG,34CP+JVG
25.07916667,121.1625,No. 856,No. 856
18.4875,-88.3125,FMPP+XX Chetumal,FMPP+XX Chetumal
22.9875,113.5708333,XHPC+X8 Panyu District,XHPC+X8 Panyu District
10.05416667,124.0625,3336+MX Inabanga,3336+MX Inabanga
39.2125,117.9291667,6W7H+2M Caijiabaoxiang,6W7H+2M Caijiabaoxiang
-7.454166667,107.1291667,G4WH+8M Sirnagalih,G4WH+8M Sirnagalih
-7.729166667,107.9125,7WC7+82 Ciheras,7WC7+82 Ciheras
19.09583333,72.82916667,17,17
-10.1625,124.2041667,R6Q3+2M Enoraen,R6Q3+2M Enoraen
-28.62916667,16.44583333,9CCW+88 Oranjemund,9CCW+88 Oranjemund
-12.59583333,-38.02916667,CX3C+M8 Mata de São João - State of Bahia,CX3C+M8 Mata de São João - State of Bahia
17.54583333,-88.27083333,GPWH+8M Ladyville,GPWH+8M Ladyville
11.95416667,124.7041667,XP33+MM Pagsanghan,XP33+MM Pagsanghan
4.3875,5.970833333,9XQC+28 Obogoro,9XQC+28 Obogoro
-31.67083333,29.45416667,8FH3+MM Mgazi,8FH3+MM Mgazi
43.1875,27.90416667,5WP3+XM Varna,5WP3+XM Varna
25.4625,59.3875,F97P+2X Poshti,F97P+2X Poshti
14.04583333,48.67916667,2MWH+8M As Sufal,2MWH+8M As Sufal
41.85416667,19.3625,V937+M2 Donji Štoj,V937+M2 Donji Štoj
-0.304166667,99.82916667,MRWH+8M Tiku Limo Jorong,MRWH+8M Tiku Limo Jorong
40.7625,129.3791667,Q96H+XM P'yong-ch'on,Q96H+XM P'yong-ch'on
36.77083333,3.454166667,QFC3+8M Corso,QFC3+8M Corso
8.970833333,-83.62916667,X9CC+88 Puntarenas Province,X9CC+88 Puntarenas Province
37.37916667,50.1875,95HP+MX Amir Abad,95HP+MX Amir Abad
45.72916667,37.7625,PQH6+MX Achuevo,PQH6+MX Achuevo
8.4875,81.1375,F4PP+XX Kinniya,F4PP+XX Kinniya
39.05416667,48.92083333,3W3C+M8 Qızılağac,3W3C+M8 Qızılağac
39.64583333,127.5041667,JGW3+8M Pokhung-ri,JGW3+8M Pokhung-ri
3.0625,101.3625,3967+X2 Klang,3967+X2 Klang
5.3875,5.554166667,9HQ3+2M Alokpa,9HQ3+2M Alokpa
-2.895833333,111.4375,4C3P+MX Tanjung Putri,4C3P+MX Tanjung Putri
25.5375,119.3541667,G9P3+XM Fuqing,G9P3+XM Fuqing
5.170833333,97.27083333,57CC+88 Kuala Kereutou,57CC+88 Kuala Kereutou
39.9125,119.5791667,WH7H+CM5,WH7H+CM5
38.75416667,48.8625,QV37+M2 Lankaran,QV37+M2 Lankaran
19.74583333,-72.14583333,PVW3+8M Defroille,PVW3+8M Defroille
19.29583333,-72.7125,77WQ+82 Modelle,77WQ+82 Modelle
21.7625,-105.5041667,QF7W+28 Boca de Camichín,QF7W+28 Boca de Camichín
16.00416667,42.82916667,2R3H+MM Al Madasikah,2R3H+MM Al Madasikah
15.47083333,42.77083333,FQCC+88 Al Khawbah,FQCC+88 Al Khawbah
-3.3875,101.8208333,JR6C+X8 Urai,JR6C+X8 Urai
22.19583333,90.42916667,5CWH+8M Atkhali,5CWH+8M Atkhali
41.3125,2.1375,Carrer de Cal Malet,Carrer de Cal Malet
1.570833333,9.645833333,HJCW+88 Mbini,HJCW+88 Mbini
-6.8375,109.1041667,5463+XM Muarareja,5463+XM Muarareja
-36.8125,-73.15416667,5RPW+X8 Hualpén,5RPW+X8 Hualpén
11.3875,43.3875,99QP+2X Saylac,99QP+2X Saylac
46.62083333,32.09583333,J3CW+88 Oleksandrivka,J3CW+88 Oleksandrivka
52.2125,4.404166667,Noordduinseweg 7,Noordduinseweg 7
33.72083333,-7.345833333,PMC3+8M Mohammedia,PMC3+8M Mohammedia
-2.304166667,119.1375,M4WP+8X Sampaga,M4WP+8X Sampaga
7.979166667,123.7041667,XPH3+MM Lala,XPH3+MM Lala
4.429166667,95.8125,CRH6+MX Panton,CRH6+MX Panton
15.27083333,120.0125,72C6+8X Botolan,72C6+8X Botolan
11.7375,79.7875,PQPQ+X2 Cuddalore,PQPQ+X2 Cuddalore
-8.220833333,146.1625,Q5H7+M2 Kukipi,Q5H7+M2 Kukipi
-3.6375,39.8625,9V67+X2 Kilifi,9V67+X2 Kilifi
10.92083333,123.0291667,W2CH+8M Enrique B. Magalona,W2CH+8M Enrique B. Magalona
59.65416667,28.27083333,M73C+M8 Ust-Luga,M73C+M8 Ust-Luga
7.170833333,100.4125,5CC7+82 Bang Riang,5CC7+82 Bang Riang
36.72083333,121.3375,P8CP+8X Haiyang,P8CP+8X Haiyang
2.804166667,111.7375,RP3Q+M2 Kampung Sekerang Igan,RP3Q+M2 Kampung Sekerang Igan
34.45416667,35.84583333,FR3V+CWX,FR3V+CWX
-29.70416667,31.09583333,73WW+88 Blackburn,73WW+88 Blackburn
15.8875,39.32916667,V8QH+2M Wik'ro,V8QH+2M Wik'ro
24.14583333,121.6625,4MW7+82 Taiwan,4MW7+82 Taiwan
-0.8125,103.4541667,5FP3+XM Tungkal Harapan,5FP3+XM Tungkal Harapan
12.07916667,109.1791667,35HH+MPC,35HH+MPC
41.44583333,19.47083333,CFWC+88 Rrushkull,CFWC+88 Rrushkull
9.504166667,-13.5125,GF3Q+M2 Womdima,GF3Q+M2 Womdima
-23.0125,-43.6125,X9PP+XX Guaratiba,X9PP+XX Guaratiba
-40.99583333,-62.79583333,2633+MM Villa Balnearia 7 de Marzo,2633+MM Villa Balnearia 7 de Marzo
52.37083333,4.9625,Zuiderzeeweg 9,Zuiderzeeweg 9
27.29583333,120.2458333,76WW+88 Shanqian Residential District,76WW+88 Shanqian Residential District
32.79583333,13.59583333,QHWW+88 Tajoura,QHWW+88 Tajoura
8.220833333,122.9958333,6XCW+88 Sindangan,6XCW+88 Sindangan
37.6125,126.7958333,8Q98JQ6W+X8,8Q98JQ6W+X8
3.170833333,113.0458333,39,39
-4.970833333,-37.14583333,2VH3+MM Areia Branca - State of Rio Grande do Norte,2VH3+MM Areia Branca - State of Rio Grande do Norte
7.170833333,81.8625,5VC7+82 Sinnamuhattuvaram,5VC7+82 Sinnamuhattuvaram
9.279166667,80.8125,7RH6+MX Mullaitivu,7RH6+MX Mullaitivu
-7.6875,109.1625,8576+FVQ,8576+FVQ
-5.5375,104.5291667,FG7H+2M Kaca Pura,FG7H+2M Kaca Pura
38.82916667,121.3958333,R9HW+M8 Longwangtang Residential District,R9HW+M8 Longwangtang Residential District
40.44583333,120.5875,CHWP+8X Haibinxiang,CHWP+8X Haibinxiang
-8.6125,116.0708333,93QC+28 Jempong Baru,93QC+28 Jempong Baru
-9.479166667,39.65416667,GMC3+8M Mkoe,GMC3+8M Mkoe
41.1375,29.84583333,Ağva Merkez,Ağva Merkez
37.2125,50.27083333,677C+28 Lale Roud,677C+28 Lale Roud
-6.3875,-80.59583333,665XJC63+XM,665XJC63+XM
19.2375,72.82916667,6RPH+XM Mumbai,6RPH+XM Mumbai
-4.8875,-81.12916667,4V6C+X8 San Luis,4V6C+X8 San Luis
34.37083333,120.0875,93CP+8X Touzeng Town,93CP+8X Touzeng Town
17.9125,83.4625,WF66+XX Pedanagamayyapalem,WF66+XX Pedanagamayyapalem
21.79583333,72.2375,Q6WQ+82 Bhavnagar,Q6WQ+82 Bhavnagar
29.32916667,50.6625,8MH6+MX Bidu,8MH6+MX Bidu
19.09583333,105.6708333,3MWC+88 Quỳnh Thọ,3MWC+88 Quỳnh Thọ
26.84583333,119.8291667,RRWH+8M Xiweizhen,RRWH+8M Xiweizhen
5.995833333,80.3125,X8W6+57F Nilasewana Housing Scheme,X8W6+57F Nilasewana Housing Scheme
10.5625,104.1541667,H563+XM Krong Kampot,H563+XM Krong Kampot
23.04583333,113.4958333,2FWW+88 Panyu District,2FWW+88 Panyu District
22.55416667,113.8625,4 Qian Hai Bo Yu,4 Qian Hai Bo Yu
3.420833333,99.32916667,C8CH+8M Nenas Siam,C8CH+8M Nenas Siam
-32.94583333,-58.09583333,3W33+MM Nuevo Berlín,3W33+MM Nuevo Berlín
21.22916667,107.3791667,69HH+MM Tiên Yên District,69HH+MM Tiên Yên District
5.495833333,100.3791667,F9WH+8M Penaga,F9WH+8M Penaga
-31.8625,29.27083333,47QC+28 Mamolweni,47QC+28 Mamolweni
5.3375,100.4041667,8CQ3+2M Perai,8CQ3+2M Perai
33.9625,-118.4541667,6201 Ocean Front Walk,6201 Ocean Front Walk
27.65416667,-110.5875,MC37+M2 Los Algodones,MC37+M2 Los Algodones
25.02916667,121.9291667,Longmen Sports Park [New Taipei City Bus],Longmen Sports Park [New Taipei City Bus]
38.92916667,121.2208333,W6HC+M8 Beihaizhen,W6HC+M8 Beihaizhen
-0.8875,119.8625,4V76+2X7,4V76+2X7
13.52916667,-89.72083333,G7HH+V66,G7HH+V66
9.604166667,124.0041667,J233+JH4,J233+JH4
10.8125,121.9458333,RW6W+X8 San Jose de Buenavista,RW6W+X8 San Jose de Buenavista
7.354166667,99.59583333,9H3W+M8 Thung Krabue,9H3W+M8 Thung Krabue
-6.854166667,109.6791667,4MWH+8M Panjang Baru,4MWH+8M Panjang Baru
20.02083333,106.2125,26C6+8X Hải Hậu District,26C6+8X Hải Hậu District
36.7875,3.3375,Q8PQ+X2 H'raoua,Q8PQ+X2 H'raoua
-6.8125,108.8791667,5VPH+XM Prapag Kidul,5VPH+XM Prapag Kidul
10.15416667,-64.70416667,573W+F49,573W+F49
-7.354166667,112.8375,JRWP+8X Segoro Tambak,JRWP+8X Segoro Tambak
-8.1625,-79.0375,RXQ7+22 Moche,RXQ7+22 Moche
16.4375,81.9625,CXP6+XX Gogannamattam,CXP6+XX Gogannamattam
-1.870833333,109.9625,4XH6+MX Kinjil Pesisir,4XH6+MX Kinjil Pesisir
31.4875,-9.770833333,F6PH+XM Diabat,F6PH+XM Diabat
-1.8625,116.3791667,49QH+2M Muara Pasir,49QH+2M Muara Pasir
4.220833333,103.4375,2990,2990
12.89583333,-16.5625,VCWP+8X Tiobon,VCWP+8X Tiobon
40.50416667,-74.30416667,GM3W+M8 Sayreville,GM3W+M8 Sayreville
22.94583333,70.47083333,WFWC+88 Navlakhi,WFWC+88 Navlakhi
14.25416667,80.12083333,743C+M8 Thamminapatnam,743C+M8 Thamminapatnam
21.04583333,92.2625,27W6+8X Nga Sar Kyue,27W6+8X Nga Sar Kyue
-6.4875,105.8041667,GR63+X95,GR63+X95
-8.4875,-78.87083333,G47H+2M Huancaquito Alto,G47H+2M Huancaquito Alto
18.44583333,121.4375,CCWP+8X Abulug,CCWP+8X Abulug
41.02083333,37.52916667,2GCH+8M Fatsa/Ordu,2GCH+8M Fatsa/Ordu
-6.045833333,106.4958333,XF3W+M8 West Mauk,XF3W+M8 West Mauk
11.14583333,125.0208333,42WC+88 Palo,42WC+88 Palo
17.09583333,42.42083333,3CWC+88 Either Saudi Arabia,3CWC+88 Either Saudi Arabia
9.945833333,99.1625,W5W7+82 Bang Maphrao,W5W7+82 Bang Maphrao
-20.40416667,-40.32083333,HMWH+8M Vila Velha - Ibes,HMWH+8M Vila Velha - Ibes
-10.04583333,39.6875,XM3P+MX Lindi,XM3P+MX Lindi
-5.195833333,119.3875,Jl. Metro Tj. Bunga No.31,Jl. Metro Tj. Bunga No.31
21.27916667,110.3875,79HP+MX Chikan District,79HP+MX Chikan District
13.50416667,100.7041667,GP33+MM Bang Pu Mai,GP33+MM Bang Pu Mai
6.395833333,-57.59583333,9CW3+8M Fort Wellington,9CW3+8M Fort Wellington
19.0625,72.9625,3X66+XX Mumbai,3X66+XX Mumbai
36.32083333,0.645833333,8J9W+X45 ماميMAMI، Ouled Boughalem,8J9W+X45 ماميMAMI، Ouled Boughalem
22.75416667,113.7291667,QP3H+MM Baoan,QP3H+MM Baoan
39.85416667,123.8708333,VV3C+M8 Beijingzizhen,VV3C+M8 Beijingzizhen
-20.9875,-40.8125,R. Quatro,R. Quatro
0.445833333,121.9041667,CWW3+8M Upt Duhiadaa,CWW3+8M Upt Duhiadaa
3.229166667,99.60416667,6JH3+MM Guntung,6JH3+MM Guntung
15.79583333,-86.7875,Q6W7+82 La Ceiba,Q6W7+82 La Ceiba
-32.3375,28.7875,MQ7P+2X Plaatjie,MQ7P+2X Plaatjie
35.7875,10.6875,QMPP+XX Sousse,QMPP+XX Sousse
-26.2875,32.82916667,PR6H+XM Machavene,PR6H+XM Machavene
16.77916667,96.1125,Q4H7+M2 Yangon,Q4H7+M2 Yangon
5.9125,116.0458333,36,36
10.34583333,79.54583333,8GWW+88 Muthupet Lagoon area,8GWW+88 Muthupet Lagoon area
24.9875,121.0208333,Xibin Rd,Xibin Rd
22.55416667,120.3375,No. 100-1號,No. 100-1號
-23.57083333,43.77916667,CQHH+MM Saint Augustin,CQHH+MM Saint Augustin
-2.629166667,116.2458333,96CW+88 Sampanahan Hilir,96CW+88 Sampanahan Hilir
15.20416667,97.8125,6R36+MX Asin,6R36+MX Asin
46.62916667,31.17916667,Vul. Lazurna,Vul. Lazurna
25.27083333,121.4875,7FCP+8X Taiwan,7FCP+8X Taiwan
-32.15416667,28.99583333,RXWW+88 Folokwe,RXWW+88 Folokwe
10.4625,-61.0375,FX77+22 Plum Mitan,FX77+22 Plum Mitan
-6.779166667,-34.95416667,62CW+88 Camurupim,62CW+88 Camurupim
21.2875,92.04583333,72PW+X8 Jaliapalong,72PW+X8 Jaliapalong
13.9375,47.8125,WRP6+XX Al Haibala,WRP6+XX Al Haibala
6.479166667,79.97916667,FXHH+MM Beruwala,FXHH+MM Beruwala
14.92083333,42.94583333,WWCW+88 Jabanah,WWCW+88 Jabanah
15.49583333,108.6541667,FMW3+59,FMW3+59
21.30416667,107.4041667,8C33+MM Tiên Yên District,8C33+MM Tiên Yên District
23.32916667,116.5958333,8HHW+M8 Jinping District,8HHW+M8 Jinping District
-7.195833333,113.1208333,R43C+M8 Disanah,R43C+M8 Disanah
-8.254166667,111.3041667,P8W3+CJ4,P8W3+CJ4
-34.10416667,18.47916667,56 Royal Rd,56 Royal Rd
12.95416667,109.4208333,XC3C+M8 Đông Hòa District,XC3C+M8 Đông Hòa District
9.154166667,80.09583333,533W+M8 Anthoniar Puram,533W+M8 Anthoniar Puram
-5.654166667,138.4208333,8CWC+88 Yausakor,8CWC+88 Yausakor
-6.4375,105.8208333,HR7C+8P6,HR7C+8P6
-8.279166667,113.1708333,P5CC+88 Selok Anyar,P5CC+88 Selok Anyar
10.97916667,-74.32083333,XMHH+MM Puebloviejo,XMHH+MM Puebloviejo
19.6875,-70.35416667,MJPW+X8 La Lometa,MJPW+X8 La Lometa
10.29583333,79.3625,79W7+82 Keezhathottam,79W7+82 Keezhathottam
6.020833333,102.4208333,2CCC+88 Bachok,2CCC+88 Bachok
-6.020833333,106.1541667,X5H3+MM Banten,X5H3+MM Banten
14.60416667,74.32083333,J83C+575,J83C+575
21.79583333,87.87916667,QVWH+CGH,QVWH+CGH
21.12916667,72.70416667,4PH3+MM Surat,4PH3+MM Surat
-12.22083333,-76.9875,Q2H7+M2 Chorrillos,Q2H7+M2 Chorrillos
44.85416667,33.60416667,8GPMVJ33+MM,8GPMVJ33+MM
-35.32083333,-72.40416667,MHHW+M8 Constitucion,MHHW+M8 Constitucion
40.52083333,122.3291667,G8CH+8M Xishi District,G8CH+8M Xishi District
19.62083333,105.8041667,JR93+WFW,JR93+WFW
14.3875,-16.94583333,93Q3+2M Mbour,93Q3+2M Mbour
31.69583333,121.2875,M7WQ+82 Dingpeng Town,M7WQ+82 Dingpeng Town
-16.8875,39.1375,446P+XX Mocareja,446P+XX Mocareja
13.2875,-88.87083333,74PH+XM El Zapote,74PH+XM El Zapote
-7.745833333,114.2958333,772W+M79,772W+M79
-18.2375,178.1708333,Q57C+28 Navua,Q57C+28 Navua
-2.404166667,104.6125,HJW7+82 Penuguan,HJW7+82 Penuguan
1.345833333,111.3458333,88WW+88 Simanggang,88WW+88 Simanggang
37.42916667,120.0125,C2H6+MX Sanshandao Residential District,C2H6+MX Sanshandao Residential District
13.07083333,-16.74583333,37C3+3C4,37C3+3C4
8.6625,76.77083333,MQ7C+52V,MQ7C+52V
21.55416667,109.7625,HQ36+MX Gaoqiaozhen,HQ36+MX Gaoqiaozhen
31.80416667,121.4958333,RF3W+M8 Qidong,RF3W+M8 Qidong
9.545833333,106.2041667,G6W3+8M Cù Lao Dung District,G6W3+8M Cù Lao Dung District
15.89583333,-88.92083333,V3WH+8M Barranco,V3WH+8M Barranco
24.47916667,117.8958333,FVHW+M8 Jiaomei,FVHW+M8 Jiaomei
41.90416667,48.49583333,WF3W+M8 Nyugdi,WF3W+M8 Nyugdi
-7.745833333,113.3875,793P+MX Penambangan,793P+MX Penambangan
-4.045833333,39.67916667,XM3H+MM Mombasa,XM3H+MM Mombasa
37.4125,122.3625,C967+X2 Poyuzhen,C967+X2 Poyuzhen
6.8375,99.7625,RQQ6+2X Pak Nam,RQQ6+2X Pak Nam
-10.94583333,-37.0375,3X37+M2 Barra dos Coqueiros - State of Sergipe,3X37+M2 Barra dos Coqueiros - State of Sergipe
-2.470833333,-79.75416667,G6HW+M8 Santa Domingo Grande,G6HW+M8 Santa Domingo Grande
-33.9875,25.29583333,277W+28 Gqeberha,277W+28 Gqeberha
14.57083333,80.1625,H5C7+82 Kudithipalem,H5C7+82 Kudithipalem
30.07916667,-9.670833333,38HH+MM Sidi R'bat,38HH+MM Sidi R'bat
28.9875,50.92916667,XWPH+XM Bushehr,XWPH+XM Bushehr
10.17083333,-14.02916667,5XCC+88 Boffa,5XCC+88 Boffa
29.0375,121.6291667,2JPH+XM Jiantiaozhen,2JPH+XM Jiantiaozhen
17.17083333,96.84583333,5RCW+88 Shwe-o,5RCW+88 Shwe-o
36.69583333,121.2041667,M6W3+9R6,M6W3+9R6
10.4625,107.1375,F47P+2X Bà Rịa,F47P+2X Bà Rịa
41.7625,129.7791667,QQ6H+XM Chongjin,QQ6H+XM Chongjin
41.5875,19.57083333,HHQC+28 Adriatik,HHQC+28 Adriatik
-11.09583333,-37.1875,WR36+MX Itaporanga d'Ajuda - State of Sergipe,WR36+MX Itaporanga d'Ajuda - State of Sergipe
40.04583333,119.9208333,2WWC+88 Xidianzizhen,2WWC+88 Xidianzizhen
7.245833333,-12.0875,6WW6+8X Kale,6WW6+8X Kale
-14.80416667,-39.0375,Av. Lomanto Júnior,Av. Lomanto Júnior
19.32083333,-96.29583333,8PC3+8M La Antigua,8PC3+8M La Antigua
-7.770833333,39.35416667,69H3+MM Kiombani,69H3+MM Kiombani
-8.345833333,114.3541667,M933+MM Patoman,M933+MM Patoman
34.62916667,119.5125,JGH6+MX Lianyun District,JGH6+MX Lianyun District
5.579166667,-9.729166667,H7HC+M8 Timbo,H7HC+M8 Timbo
-12.29583333,-76.85416667,Lote 17,Lote 17
13.27083333,-16.17083333,7RCH+8M Missira Tenda,7RCH+8M Missira Tenda
15.82916667,-87.3125,RMHP+MX Colorado Barra,RMHP+MX Colorado Barra
6.745833333,124.0291667,P2WH+8M Datu Blah Sinsuat,P2WH+8M Datu Blah Sinsuat
19.4125,-96.32916667,CM6C+X8 Barra de Chachalacas,CM6C+X8 Barra de Chachalacas
-17.45416667,177.6541667,GMW3+8M Nailaga,GMW3+8M Nailaga
10.6625,45.45416667,7H27MF63+XM,7H27MF63+XM
9.7125,104.8541667,PV73+2M Đông Hưng A,PV73+2M Đông Hưng A
-9.7375,-35.82083333,757H+2M Marechal Deodoro - State of Alagoas,757H+2M Marechal Deodoro - State of Alagoas
-0.654166667,-80.30416667,8MWW+88 Salinas,8MWW+88 Salinas
31.49583333,31.42083333,FCWC+88 Al Satamoni,FCWC+88 Al Satamoni
40.1625,49.47083333,5F6C+X8 Sangachal,5F6C+X8 Sangachal
-8.3875,-34.97083333,J26H+XM Ipojuca,J26H+XM Ipojuca
-26.5875,-48.67083333,C87H+2M Barra Velha - State of Santa Catarina,C87H+2M Barra Velha - State of Santa Catarina
22.3875,113.0625,93Q6+2X Xinhui District,93Q6+2X Xinhui District
4.345833333,118.3458333,6PPW88WW+88,6PPW88WW+88
4.829166667,5.545833333,RGHW+M8 Eekemegbene,RGHW+M8 Eekemegbene
18.22916667,-72.3125,6MHP+MX Marigot,6MHP+MX Marigot
40.6125,49.6125,JJ77+22 Sumqayit,JJ77+22 Sumqayit
-15.12083333,40.5625,VHH6+MX Injaca,VHH6+MX Injaca
20.9625,-97.3375,Derecho de Vía Pemex 40,Derecho de Vía Pemex 40
-14.87916667,-75.5625,57Q64CCP+8X,57Q64CCP+8X
20.67083333,110.3041667,M8C3+8M Tiaofengzhen,M8C3+8M Tiaofengzhen
20.3625,109.9791667,9X6H+XM Maichenzhen,9X6H+XM Maichenzhen
16.64583333,94.69583333,JMWW+88 Hpyan Yae Kyaw,JMWW+88 Hpyan Yae Kyaw
-32.24583333,28.89583333,QV3W+M8 Bashee,QV3W+M8 Bashee
36.97083333,121.9958333,XXCW+88 Wendeng District,XXCW+88 Wendeng District
40.84583333,121.0041667,R2W3+8M Longxiang Neighborthood,R2W3+8M Longxiang Neighborthood
-8.379166667,113.4208333,JCCC+67J,JCCC+67J
0.520833333,122.6458333,GJCW+F88,GJCW+F88
4.3875,117.5875,6PPV9HQP+2X,6PPV9HQP+2X
-7.020833333,112.7458333,Jl. Pertempuran No.32,Jl. Pertempuran No.32
39.92916667,124.3041667,W8H3+MM Sindo,W8H3+MM Sindo
-7.770833333,113.3041667,68H3+MM Pajurangan,68H3+MM Pajurangan
8.254166667,77.14583333,743W+M8 Ezhudesam,743W+M8 Ezhudesam
25.24583333,121.4625,No. 62之5號,No. 62之5號
23.52083333,120.1541667,G5C3+8M Taiwan,G5C3+8M Taiwan
33.7125,35.44583333,PC7W+28 Khiam El Damour,PC7W+28 Khiam El Damour
45.9625,38.1125,X477+22 Sadki,X477+22 Sadki
10.2875,123.8875,7VPP+XX Cebu City,7VPP+XX Cebu City
8.804166667,104.9041667,RW33+MM Năm Căn District,RW33+MM Năm Căn District
-33.69583333,26.6625,8M36+MX Boesmansriviermond,8M36+MX Boesmansriviermond
21.05416667,72.79583333,3Q3W+M8 Surat,3Q3W+M8 Surat
-6.795833333,39.27916667,673H+7M5,673H+7M5
-7.495833333,107.2958333,G73W+M8 Kertajadi,G73W+M8 Kertajadi
29.1875,121.6458333,5JPW+X8 Ninghai County,5JPW+X8 Ninghai County
-18.1125,-39.55416667,VCQW+28 Mucuri,VCQW+28 Mucuri
16.60416667,-16.44583333,7C85JH33+MM,7C85JH33+MM
7.045833333,125.5541667,111 Victorio Rd,111 Victorio Rd
30.3875,-81.4375,9HQ6+2X Northside,9HQ6+2X Northside
52.32916667,5.145833333,84HW+M8 Almere,84HW+M8 Almere
19.57083333,40.82916667,HRCH+8M doga Saudi Arabia,HRCH+8M doga Saudi Arabia
-20.32083333,-40.32083333,MMHH+MM Vitória,MMHH+MM Vitória
52.7875,0.370833333,Q9PC+X8 King's Lynn,Q9PC+X8 King's Lynn
25.5875,58.4625,HFQ7+22 Sepādag,HFQ7+22 Sepādag
3.8875,96.3625,V9Q7+22 Babah Lueng,V9Q7+22 Babah Lueng
9.7875,-62.30416667,67XVQMPW+X8,67XVQMPW+X8
33.3625,-79.25416667,9P6W+X8 Georgetown,9P6W+X8 Georgetown
21.74583333,108.8791667,PVWH+8M Dongchangzhen,PVWH+8M Dongchangzhen
33.52916667,-7.795833333,G6H3+RMF,G6H3+RMF
57.15416667,24.27083333,573C+M8 Gauja,573C+M8 Gauja
46.54583333,30.74583333,Mykolaivs'ka Rd,Mykolaivs'ka Rd
23.17916667,90.5875,5HHP+MX Ibrahimpur,5HHP+MX Ibrahimpur
29.42083333,121.4375,CCCP+8X Ninghai County,CCCP+8X Ninghai County
37.02916667,122.4125,2CH7+M2 Tengjia,2CH7+M2 Tengjia
5.404166667,100.3291667,3-11-17,3-11-17
24.04583333,117.7791667,2QWH+8M Zhangpu County,2QWH+8M Zhangpu County
2.920833333,117.6041667,WJC3+8M Tanjung Buka,WJC3+8M Tanjung Buka
-8.520833333,114.3541667,F9H3+MM Wringin Putih,F9H3+MM Wringin Putih
-8.4625,13.3875,G9PP+XX Barra do Dande,G9PP+XX Barra do Dande
14.9875,120.0625,X3P6+XX San Narciso,X3P6+XX San Narciso
30.02916667,121.6291667,2JHH+MM Zhenhai District,2JHH+MM Zhenhai District
20.9375,72.80416667,WRP3+XM Dandi,WRP3+XM Dandi
22.67083333,90.50416667,MGC3+8M Malek Howlader Bari,MGC3+8M Malek Howlader Bari
10.92083333,108.0875,720/12 Trần Hưng Đạo,720/12 Trần Hưng Đạo
10.4375,-61.4875,CGP7+X2 Couva,CGP7+X2 Couva
9.0375,-71.59583333,2CP3+XM Santa Rosa,2CP3+XM Santa Rosa
-7.495833333,107.3541667,G933+MM Cidamar,G933+MM Cidamar
18.42916667,108.8625,CVH7+M2 Leluo Town,CVH7+M2 Leluo Town
31.4125,30.6625,CM66+XX Sidi Salem,CM66+XX Sidi Salem
4.445833333,113.9958333,CXWW+88 Lutong,CXWW+88 Lutong
19.9375,109.9875,WXPQ+X2 Macun Town,WXPQ+X2 Macun Town
26.47916667,119.5875,FHHQ+MCV,FHHQ+MCV
33.22083333,11.17083333,65CC+88 Ben Gardane,65CC+88 Ben Gardane
-6.095833333,106.7291667,WP3H+MM Kamal Muara,WP3H+MM Kamal Muara
12.60416667,44.0125,J236+MX Al Bahiyah,J236+MX Al Bahiyah
30.17916667,-89.7375,57H7+M2 New Orleans,57H7+M2 New Orleans
8.820833333,76.64583333,Paravur Lake,Paravur Lake
5.820833333,102.5708333,1425,1425
29.1625,121.4375,5C6P+XX Ninghai County,5C6P+XX Ninghai County
36.7625,52.9375,QW6P+XX Emamzadeh Mahmud,QW6P+XX Emamzadeh Mahmud
29.6875,121.8291667,MRPH+XM Yinzhou,MRPH+XM Yinzhou
33.95416667,35.59583333,XH3W+M8 Nahr El Kalb,XH3W+M8 Nahr El Kalb
39.94583333,53.6625,8HFMWMW6+8X,8HFMWMW6+8X
-5.104166667,120.2875,V7WP+8X Massangkae,V7WP+8X Massangkae
11.37916667,124.7958333,9QHW+M8 San Miguel,9QHW+M8 San Miguel
20.27083333,110.2208333,76CC+54Q,76CC+54Q
36.82916667,31.17916667,8G8HR5HH+MM,8G8HR5HH+MM
-6.1375,105.8625,VV67+X4H,VV67+X4H
22.47916667,114.0208333,F2HC+M8 Yuen Long,F2HC+M8 Yuen Long
23.97083333,120.3291667,X8CH+8M Taiwan,X8CH+8M Taiwan
22.92916667,113.6125,WJH7+M2 Panyu District,WJH7+M2 Panyu District
36.5125,1.3125,G867+5CR,G867+5CR
40.95416667,121.8041667,8QG3XR33+MM,8QG3XR33+MM
5.029166667,-1.620833333,29HH+MM Shama,29HH+MM Shama
57.4125,21.5625,CH66+XX Ventspils,CH66+XX Ventspils
32.8375,12.2875,R7QP+2X Tawela,R7QP+2X Tawela
24.3375,67.52916667,8GQH+2M Garho,8GQH+2M Garho
-17.4625,37.7125,GPP7+X2 Raraga,GPP7+X2 Raraga
29.32916667,47.89583333,8VHW+R22,8VHW+R22
14.02083333,-16.7125,27CP+8X Mar Lodj,27CP+8X Mar Lodj
-4.045833333,39.57083333,XH3C+M8 Mienzeni,XH3C+M8 Mienzeni
20.6875,-105.2875,Blvrd de Nayarit 1b,Blvrd de Nayarit 1b
24.09583333,67.85416667,3VW3+8M Shah Bandar,3VW3+8M Shah Bandar
8.795833333,99.92916667,QWWH+8M Klai,QWWH+8M Klai
37.24583333,50.25416667,67W3+8M Chamkhaleh,67W3+8M Chamkhaleh
41.00416667,39.75416667,2Q33+MM Ortahisar/Trabzon,2Q33+MM Ortahisar/Trabzon
